SALE TYPE,HOME TYPE,ADDRESS,CITY,STATE,ZIP,LIST PRICE,BEDS,BATHS,LOCATION,SQFT,LOT SIZE,YEAR BUILT,PARKING SPOTS,PARKING TYPE,DAYS ON MARKET,STATUS,NEXT OPEN HOUSE DATE,NEXT OPEN HOUSE START TIME,NEXT OPEN HOUSE END TIME,RECENT REDUCTION DATE,ORIGINAL LIST PRICE,LAST SALE DATE,LAST SALE PRICE,URL (SEE http://www.redfin.com/buy-a-home/comparative-market-analysis FOR INFO ON PRICING),SOURCE,LISTING ID,ORIGINAL SOURCE,FAVORITE,INTERESTED,LATITUDE,LONGITUDE,IS SHORT SALE
Past Sale,Single Family Residential,136 Avellino Way (Unable to map),Mountain View,CA,94043,,4,3.5,94043,1916,,,,,,,,,,,,2014-12-05,1475000,http://www.redfin.com/CA/Mountain-View/136-Avellino-Way-94043/home/62324344,,,,N,Y,37.3902,-122.0566,
Past Sale,Single Family Residential,776 Winston Pl,Mountain View,CA,94043,,3,1,94043,984,,1954,,,,,,,,,,2015-03-06,815000,http://www.redfin.com/CA/Mountain-View/776-Winston-Pl-94043/home/1160208,,,,N,Y,37.404682,-122.06624,
Past Sale,Single Family Residential,910 Wright Ave,MOUNTAIN VIEW,CA,94043,1525000,3,2.5,MOUNTAIN VIEW,2030,6214,1988,2,Garage,,Sold,,,,,1525000,2015-02-19,1775000,http://www.redfin.com/CA/Mountain-View/910-Wright-Ave-94043/home/615213,MLSListings Inc. (MLSLI),ML81450225,Coldwell Banker-Los Gatos,N,Y,37.399514,-122.078612,false
Past Sale,Single Family Residential,220 Oak St,MOUNTAIN VIEW,CA,94041,1688000,3,3,MOUNTAIN VIEW,2497,7000,1994,2,Garage,,Sold,,,,,1688000,2015-02-25,2282000,http://www.redfin.com/CA/Mountain-View/220-Oak-St-94041/home/1527212,MLSListings Inc. (MLSLI),ML81451175,Alain Pinel Realtors,N,Y,37.394966,-122.082634,false
Past Sale,Single Family Residential,774 Bond Way,Mountain View,CA,94040,,3,1,94040,1004,,1952,,,,,,,,,,2013-07-03,1050000,http://www.redfin.com/CA/Mountain-View/774-Bond-Way-94040/home/1303677,,,,N,Y,37.372843,-122.085936,
Past Sale,Single Family Residential,1851 Walnut Dr,MOUNTAIN VIEW,CA,94040,1795000,3,2.5,MOUNTAIN VIEW,1708,8610,1959,2,Garage,,Sold,,,,,1795000,2015-03-19,2250000,http://www.redfin.com/CA/Mountain-View/1851-Walnut-Dr-94040/home/1321523,MLSListings Inc. (MLSLI),ML81454209,Intero Real Estate Services,N,Y,37.369475,-122.092161,false
Past Sale,Single Family Residential,13131 Lorene Ct,Mountain View,CA,94040,,3,2,94040,1432,,1955,,,,,,,,,,2013-04-16,208500,http://www.redfin.com/CA/Mountain-View/13131-Lorene-Ct-94040/home/1427727,,,,N,Y,37.368804,-122.069573,
Past Sale,Single Family Residential,752 Burgoyne St,Mountain View,CA,94043,,3,1,94043,860,,1950,,,,,,,,,,2014-12-31,993000,http://www.redfin.com/CA/Mountain-View/752-Burgoyne-St-94043/home/893690,,,,N,Y,37.405055,-122.086432,
Past Sale,Single Family Residential,214 Lauella Ct,MOUNTAIN VIEW,CA,94041,1100000,3,1,MOUNTAIN VIEW,1193,5440,1953,2,Garage,,Sold,,,,,1100000,2015-02-25,1400000,http://www.redfin.com/CA/Mountain-View/214-Lauella-Ct-94041/home/1641768,MLSListings Inc. (MLSLI),ML81451297,Alain Pinel Realtors,N,Y,37.398638,-122.092319,false
Past Sale,Single Family Residential,355 Fay Way,MOUNTAIN VIEW,CA,94043,1225000,3,2,MOUNTAIN VIEW,1104,5000,1955,1,Garage,,Sold,,,,,1225000,2015-03-04,1510000,http://www.redfin.com/CA/Mountain-View/355-Fay-Way-94043/home/1349842,MLSListings Inc. (MLSLI),ML81452486,Coldwell Banker Los Altos,N,Y,37.408033,-122.095271,false
Past Sale,Single Family Residential,1647 Cornell Dr,Mountain View,CA,94040,,3,1.5,94040,1178,,1952,,,,,,,,,,2014-08-06,1400000,http://www.redfin.com/CA/Mountain-View/1647-Cornell-Dr-94040/home/1558776,,,,N,Y,37.375914,-122.088532,
Past Sale,Single Family Residential,859 Tulane Ct,Mountain View,CA,94040,,3,1.5,94040,1178,,1952,,,,,,,,,,2014-11-24,1280000,http://www.redfin.com/CA/Mountain-View/859-Tulane-Ct-94040/home/593898,,,,N,Y,37.375751,-122.08936,
Past Sale,Single Family Residential,3382 Tryna Dr,Mountain View,CA,94040,,4,2.5,94040,2365,,1977,,,,,,,,,,2014-11-13,2165000,http://www.redfin.com/CA/Mountain-View/3382-Tryna-Dr-94040/home/647638,,,,N,Y,37.362182,-122.067146,
Past Sale,Single Family Residential,1527 Miramonte Ave,Mountain View,CA,94040,,3,2,94040,1300,,1955,,,,,,,,,,2012-12-31,570000,http://www.redfin.com/CA/Mountain-View/1527-Miramonte-Ave-94040/home/1094300,,,,N,Y,37.377743,-122.086655,
Past Sale,Single Family Residential,1081 Jackson St,Mountain View,CA,94043,,4,2.5,94043,2236,,1908,,,,,,,,,,2014-09-30,1050000,http://www.redfin.com/CA/Mountain-View/1081-Jackson-St-94043/home/17290290,,,,N,Y,37.399074,-122.082364,
Past Sale,Single Family Residential,381 Villa St,Mountain View,CA,94041,,3,2.5,94041,1526,,2014,,,,,,,,,,2014-10-02,1746000,http://www.redfin.com/CA/Mountain-View/381-Villa-St-94041/home/62323873,,,,N,Y,37.391622,-122.073842,
Past Sale,Single Family Residential,240 Shumway Ln (Unable to map),Mountain View,CA,94041,,4,2.5,94041,1976,,2014,,,,,,,,,,2014-10-29,1882000,http://www.redfin.com/CA/Mountain-View/240-Shumway-Ln-94041/home/62324092,,,,N,Y,37.3904,-122.0726,
Past Sale,Single Family Residential,232 Shumway LN,Mountain View,CA,94041,,4,2.5,94041,1976,,2014,,,,,,,,,,2014-10-22,1848000,http://www.redfin.com/CA/Mountain-View/232-Shumway-LN-94041/home/62324064,,,,N,Y,37.3909889,-122.0744133,
Past Sale,Single Family Residential,211 Shumway Ln (Unable to map),Mountain View,CA,94041,,3,2.5,94041,1526,,2014,,,,,,,,,,2014-11-13,1690500,http://www.redfin.com/CA/Mountain-View/211-Shumway-Ln-94041/home/62324201,,,,N,Y,37.3904,-122.0726,
Past Sale,Single Family Residential,371 Villa St,Mountain View,CA,94041,,4,2.5,94041,2016,,2014,,,,,,,,,,2014-11-12,1931000,http://www.redfin.com/CA/Mountain-View/371-Villa-St-94041/home/62324202,,,,N,Y,37.391591,-122.073793,
Past Sale,Single Family Residential,215 Shumway Ln (Unable to map),Mountain View,CA,94041,,4,2.5,94041,1976,,2014,,,,,,,,,,2014-11-20,1938500,http://www.redfin.com/CA/Mountain-View/215-Shumway-Ln-94041/home/62324218,,,,N,Y,37.3904,-122.0726,
Past Sale,Single Family Residential,216 Shumway Ln (Unable to map),Mountain View,CA,94041,,4,2.5,94041,1976,,2014,,,,,,,,,,2014-11-26,1909000,http://www.redfin.com/CA/Mountain-View/216-Shumway-Ln-94041/home/62324238,,,,N,Y,37.3904,-122.0726,
Past Sale,Single Family Residential,220 Shumway Ln (Unable to map),Mountain View,CA,94041,,4,2.5,94041,1976,,2014,,,,,,,,,,2014-11-05,1866000,http://www.redfin.com/CA/Mountain-View/220-Shumway-Ln-94041/home/62324176,,,,N,Y,37.3904,-122.0726,
Past Sale,Single Family Residential,104 Concord Cir,Mountain View,CA,94040,,3,2.5,94040,1570,,1994,,,,,,,,,,2013-08-28,1312000,http://www.redfin.com/CA/Mountain-View/104-Concord-Cir-94040/home/2121752,,,,N,Y,37.404768,-122.105933,
Past Sale,Single Family Residential,2143 Junction Ave,Mountain View,CA,94043,,3,2,94043,1683,,1954,,,,,,,,,,2014-04-28,1098500,http://www.redfin.com/CA/Mountain-View/2143-Junction-Ave-94043/home/607580,,,,N,Y,37.410248,-122.094069,
Past Sale,Single Family Residential,1793 VASSAR Ave,Mountain View,CA,94043,849000,3,1,Mountain View,860,5400,1950,2,Garage,,Sold,,,,,849000,2014-02-03,916000,http://www.redfin.com/CA/Mountain-View/1793-Vassar-Ave-94043/home/1821921,MLSListings Inc. (MLSLI),ML81402283,Intero Real Estate Services,N,Y,37.402609,-122.087929,false
Past Sale,Single Family Residential,342 ANNA Ave,Mountain View,CA,94043,949000,3,2,Monta Loma,1170,5000,1956,2,Garage,,Sold,,,,,949000,2013-06-06,,http://www.redfin.com/CA/Mountain-View/342-Anna-Ave-94043/home/1413008,MLSListings Inc. (MLSLI),ML81318358,Coldwell Banker Los Altos,N,Y,37.409064,-122.10126,false
Past Sale,Single Family Residential,1934 Cappelletti Ct,Mountain View,CA,94043,,4,3,94043,1629,,2006,,,,,,,,,,2014-07-10,1490500,http://www.redfin.com/CA/Mountain-View/1934-Cappelletti-Ct-94043/home/12179524,,,,N,Y,37.405134,-122.091882,
Past Sale,Single Family Residential,836 Bourbon Ct,Mountain View,CA,94041,,4,2,94041,1730,,1978,,,,,,,,,,2013-07-31,1150000,http://www.redfin.com/CA/Mountain-View/836-Bourbon-Ct-94041/home/1277471,,,,N,Y,37.377803,-122.065491,
Past Sale,Single Family Residential,139 Azalea Dr,Mountain View,CA,94041,,2,2.5,94041,1787,,2008,,,,,,,,,,2012-06-22,1055000,http://www.redfin.com/CA/Mountain-View/139-Azalea-Dr-94041/home/17290759,,,,N,Y,37.389185,-122.072751,
Past Sale,Single Family Residential,521 Frances Way,Mountain View,CA,94041,,3,2,94041,1431,,1954,,,,,,,,,,2013-07-25,1260000,http://www.redfin.com/CA/Mountain-View/521-Frances-Way-94041/home/619786,,,,N,Y,37.386681,-122.072151,
Past Sale,Single Family Residential,315 LORETO St,Mountain View,CA,94041,1088000,3,2,"""OLD MTN VIEW""",1028,5750,1921,1,Garage,,Sold,,,,2012-05-17,1178000,2012-05-25,1045000,http://www.redfin.com/CA/Mountain-View/315-Loreto-St-94041/home/1413613,MLSListings Inc. (MLSLI),ML81217235,Alain Pinel Realtors,N,Y,37.389399,-122.074865,false
Past Sale,Single Family Residential,3380 Villa Robleda Dr,Mountain View,CA,94040,,4,2.5,94040,2230,,1969,,,,,,,,,,2012-11-29,1406000,http://www.redfin.com/CA/Mountain-View/3380-Villa-Robleda-Dr-94040/home/646139,,,,N,Y,37.361711,-122.07035,
Past Sale,Single Family Residential,3372 VILLA ROBLEDA Dr,Mountain View,CA,94040,1399000,3,2.5,Villa Robleda,2287,7878,1969,2,Garage,,Sold,,,,,1399000,2013-02-01,1550000,http://www.redfin.com/CA/Mountain-View/3372-Villa-Robleda-Dr-94040/home/647427,MLSListings Inc. (MLSLI),ML81301826,Coldwell Banker Los Altos,N,Y,37.362144,-122.070351,false
Past Sale,Single Family Residential,517 PRESTON Dr,Mountain View,CA,94040,1398000,3,2,Mountain View,1863,8000,1971,2,Garage,,Sold,,,,,1398000,2013-02-13,1612000,http://www.redfin.com/CA/Mountain-View/517-Preston-Dr-94040/home/1398032,MLSListings Inc. (MLSLI),ML81303453,Alain Pinel Realtors,N,Y,37.36388,-122.072931,false
Past Sale,Single Family Residential,461 BRYANT Ave,Mountain View,CA,94040,1200000,3,2,Mountain View,1430,8800,1952,2,Garage,,Sold,,,,,1200000,2013-04-11,1415000,http://www.redfin.com/CA/Mountain-View/461-Bryant-Ave-94040/home/646453,MLSListings Inc. (MLSLI),ML81310590,Coldwell Banker Los Altos,N,Y,37.361068,-122.074311,false
Past Sale,Single Family Residential,528 LEONA Ln,Mountain View,CA,94040,1098000,3,2,Mountain View,1178,6283,1956,2,Garage,,Sold,,,,,1098000,2013-07-25,1260000,http://www.redfin.com/CA/Mountain-View/528-Leona-Ln-94040/home/648296,MLSListings Inc. (MLSLI),ML81325934,Coldwell Banker,N,Y,37.377046,-122.081418,false
Past Sale,Single Family Residential,16 STARR Way,Mountain View,CA,94040,1099000,3,1,Mountain View,1139,16500,1948,1,Garage,,Sold,,,,,1099000,2013-03-15,1401400,http://www.redfin.com/CA/Mountain-View/16-Starr-Way-94040/home/1114602,MLSListings Inc. (MLSLI),ML81306877,RE/MAX Real Estate Services,N,Y,37.380154,-122.087814,false
Past Sale,Single Family Residential,1423 Nilda Ave,Mountain View,CA,94040,,3,2.5,94040,2277,,1954,,,,,,,,,,2013-06-21,1600000,http://www.redfin.com/CA/Mountain-View/1423-Nilda-Ave-94040/home/685314,,,,N,Y,37.376817,-122.079228,
Past Sale,Single Family Residential,1690 LEE Dr,Mountain View,CA,94040,999000,3,1.5,Mountain View,1178,6624,1952,2,Garage,,Sold,,,,,999000,2012-10-10,1120000,http://www.redfin.com/CA/Mountain-View/1690-Lee-Dr-94040/home/1705585,MLSListings Inc. (MLSLI),ML81236470,Intero Real Estate Services,N,Y,37.374788,-122.090684,false
Past Sale,Single Family Residential,1567 Nilda Ave,Mountain View,CA,94040,,3,2,94040,1248,,1954,,,,,,,,,,2012-06-19,1115000,http://www.redfin.com/CA/Mountain-View/1567-Nilda-Ave-94040/home/1212850,,,,N,Y,37.375225,-122.079226,
Past Sale,Single Family Residential,2676 Yorkton Dr,Mountain View,CA,94040,,4,3,94040,1975,,1965,,,,,,,,,,2013-08-16,1565000,http://www.redfin.com/CA/Mountain-View/2676-Yorkton-Dr-94040/home/1622719,,,,N,Y,37.367102,-122.072143,
Past Sale,Single Family Residential,1880 GOLDEN Way,Mountain View,CA,94040,1398000,3,2,Gest Ranch,1690,8036,1963,2,Garage,,Sold,,,,,1398000,2012-06-14,1480000,http://www.redfin.com/CA/Mountain-View/1880-Golden-Way-94040/home/1467281,MLSListings Inc. (MLSLI),ML81221454,Intero Real Estate Services,N,Y,37.368324,-122.090903,false
Past Sale,Single Family Residential,482 Mariposa Ave,Mountain View,CA,94041,,4,2,94041,1939,,1915,,,,,,,,,,2012-11-08,1250000,http://www.redfin.com/CA/Mountain-View/482-Mariposa-Ave-94041/home/1022062,,,,N,Y,37.394165,-122.090421,
Past Sale,Single Family Residential,1236 Christobal Privada,Mountain View,CA,94040,,4,2.5,94040,2493,,1986,,,,,,,,,,2015-01-29,1695000,http://www.redfin.com/CA/Mountain-View/1236-Christobal-Privada-94040/home/780834,,,,N,Y,37.370493,-122.064819,
Past Sale,Townhouse,1155 Carlos Privada,Mountain View,CA,94040,,3,3,94040,2022,,1985,,,,,,,,,,2015-02-18,1451000,http://www.redfin.com/CA/Mountain-View/1155-Carlos-Privada-94040/home/1045276,,,,N,Y,37.372633,-122.063204,
Past Sale,Single Family Residential,305 Woodland Park Ln,Mountain View,CA,94043,,4,3,94043,2264,,1988,,,,,,,,,,2015-02-17,1860000,http://www.redfin.com/CA/Mountain-View/305-Woodland-Park-Ln-94043/home/1345098,,,,N,Y,37.398653,-122.076794,
Past Sale,Single Family Residential,501 Alicia Way,Los Altos,CA,94022,,3,3,94022,2056,,1954,,,,,,,,,,2015-02-26,2820000,http://www.redfin.com/CA/Los-Altos/501-Alicia-Way-94022/home/1748095,,,,N,Y,37.390303,-122.104872,
Past Sale,Single Family Residential,1572 Spring St,Mountain View,CA,94043,,3,2,94043,1258,,1956,,,,,,,,,,2015-02-27,978500,http://www.redfin.com/CA/Mountain-View/1572-Spring-St-94043/home/1629677,,,,N,Y,37.412684,-122.081168,
Past Sale,Single Family Residential,1147 Creek Way,Mountain View,CA,94040,,3,2.5,94040,1653,,2009,,,,,,,,,,2015-02-25,1505000,http://www.redfin.com/CA/Mountain-View/1147-Creek-Way-94040/home/23044943,,,,N,Y,37.383736,-122.089235,
Past Sale,Single Family Residential,101 Savannah Loop (Unable to map),MOUNTAIN VIEW,CA,94043,1850000,4,3.5,MOUNTAIN VIEW,2204,1524,2015,2,Garage,,Sold,,,,,1850000,2015-03-26,1835000,http://www.redfin.com/CA/Mountain-View/101-Savannah-Loop-94043/home/63682655,MLSListings Inc. (MLSLI),ML81449951,Charles R. Baldwin~ Broker,N,Y,,,false
Past Sale,Single Family Residential,860 YARDIS Ct,Mountain View,CA,94040,1400000,3,2.5,Mountain View,1556,16552,1954,2,Garage,,Sold,,,,,1400000,2012-12-20,1400000,http://www.redfin.com/CA/Mountain-View/860-Yardis-Ct-94040/home/660862,MLSListings Inc. (MLSLI),ML81238065,Dreyfus Sotheby's International Realty,N,Y,37.36666,-122.088543,false
Past Sale,Single Family Residential,2711 Preston Dr,Mountain View,CA,94040,,4,3,94040,2248,,1971,,,,,,,,,,2013-06-06,1690000,http://www.redfin.com/CA/Mountain-View/2711-Preston-Dr-94040/home/1321618,,,,N,Y,37.365233,-122.072564,
Past Sale,Single Family Residential,2706 Ramos Ct,Mountain View,CA,94040,,4,2,94040,2126,,1971,,,,,,,,,,2014-07-30,1902000,http://www.redfin.com/CA/Mountain-View/2706-Ramos-Ct-94040/home/941715,,,,N,Y,37.365549,-122.064364,
Past Sale,Single Family Residential,2716 Katrina Way,Mountain View,CA,94040,,4,2,94040,1994,,1966,,,,,,,,,,2012-08-10,1295000,http://www.redfin.com/CA/Mountain-View/2716-Katrina-Way-94040/home/880117,,,,N,Y,37.364807,-122.068453,
Past Sale,Single Family Residential,386 Bryant Ave,Mountain View,CA,94040,,4,2,94040,2325,,1926,,,,,,,,,,2014-04-16,1750000,http://www.redfin.com/CA/Mountain-View/386-Bryant-Ave-94040/home/1561720,,,,N,Y,37.361544,-122.075446,
Past Sale,Single Family Residential,303 PRESTON Dr,Mountain View,CA,94040,1595000,3,2,Mountain View,1922,8025,1972,2,Garage,,Sold,,,,,1595000,2013-10-17,1700000,http://www.redfin.com/CA/Mountain-View/303-Preston-Dr-94040/home/648767,MLSListings Inc. (MLSLI),ML81337214,Alain Pinel Realtors,N,Y,37.363286,-122.075874,false
Past Sale,Single Family Residential,1653 Hollingsworth Dr,Mountain View,CA,94040,,3,2,94040,1647,,1969,,,,,,,,,,2012-08-29,1407000,http://www.redfin.com/CA/Mountain-View/1653-Hollingsworth-Dr-94040/home/1542146,,,,N,Y,37.387913,-122.095368,
Past Sale,Single Family Residential,1745 Pilgrim Ave,Mountain View,CA,94040,,3,1,94040,1618,,1954,,,,,,,,,,2012-11-01,988000,http://www.redfin.com/CA/Mountain-View/1745-Pilgrim-Ave-94040/home/564343,,,,N,Y,37.38923,-122.097999,
Past Sale,Single Family Residential,2139 Jardin Dr,Mountain View,CA,94040,,3,1,94040,1198,,1952,,,,,,,,,,2012-11-15,1200000,http://www.redfin.com/CA/Mountain-View/2139-Jardin-Dr-94040/home/1070838,,,,N,Y,37.38842,-122.104953,
Past Sale,Single Family Residential,1558 Mercy St,Mountain View,CA,94041,,2,2,94041,1592,,1925,,,,,,,,,,2012-06-22,1235000,http://www.redfin.com/CA/Mountain-View/1558-Mercy-St-94041/home/1136839,,,,N,Y,37.393665,-122.089755,
Past Sale,Single Family Residential,462 PETTIS Ave,Mountain View,CA,94041,2450000,4,3,Mountain View,2450,6600,2014,2,Garage,,Sold,,,,,2450000,2014-06-10,2350000,http://www.redfin.com/CA/Mountain-View/462-Pettis-Ave-94041/home/616747,MLSListings Inc. (MLSLI),ML81413655,Intero Real Estate Services,N,Y,37.393724,-122.089067,false
Past Sale,Single Family Residential,1068 Sladky Ave,Mountain View,CA,94040,,4,2,94040,2163,,1957,,,,,,,,,,2014-08-05,1850000,http://www.redfin.com/CA/Mountain-View/1068-Sladky-Ave-94040/home/1281077,,,,N,Y,37.374339,-122.092949,
Past Sale,Single Family Residential,2012 SUN MOR Ave,Mountain View,CA,94040,2688000,4,4,Mountain View,3584,10920,2008,2,Garage,,Sold,,,,,2688000,2014-04-09,3200000,http://www.redfin.com/CA/Mountain-View/2012-Sun-Mor-Ave-94040/home/1427734,MLSListings Inc. (MLSLI),ML81410566,Intero Real Estate Services,N,Y,37.373225,-122.070449,false
Past Sale,Single Family Residential,1631 DENNIS Ln,Mountain View,CA,94040,900000,3,2,Mountain View,1270,6634,1937,2,Garage,,Sold,,,,,900000,2013-06-20,1000000,http://www.redfin.com/CA/Mountain-View/1631-Dennis-Ln-94040/home/644127,MLSListings Inc. (MLSLI),ML81319517,Keller Williams San Jose Gateway,N,Y,37.386463,-122.09494,false
Past Sale,Single Family Residential,793 View St,Mountain View,CA,94041,,4,2,94041,1754,,1938,,,,,,,,,,2014-10-22,2900000,http://www.redfin.com/CA/Mountain-View/793-View-St-94041/home/1771780,,,,N,Y,37.386077,-122.080637,
Past Sale,Single Family Residential,1453 Lloyd Way,Mountain View,CA,94040,,3,2,94040,1246,,1954,,,,,,,,,,2014-10-03,1500000,http://www.redfin.com/CA/Mountain-View/1453-Lloyd-Way-94040/home/644941,,,,N,Y,37.386728,-122.092645,
Past Sale,Single Family Residential,149 Eunice Ave,Mountain View,CA,94040,,3,2,94040,1598,,1956,,,,,,,,,,2014-06-13,1825000,http://www.redfin.com/CA/Mountain-View/149-Eunice-Ave-94040/home/649633,,,,N,Y,37.369592,-122.076447,
Past Sale,Single Family Residential,2349 Carol Ave,Mountain View,CA,94040,,4,2,94040,1639,,1957,,,,,,,,,,2012-07-02,1385000,http://www.redfin.com/CA/Mountain-View/2349-Carol-Ave-94040/home/709056,,,,N,Y,37.370008,-122.074832,
Past Sale,Single Family Residential,3438 Woodstock Ln,Mountain View,CA,94040,,4,2,94040,2023,,1964,,,,,,,,,,2012-10-31,1540000,http://www.redfin.com/CA/Mountain-View/3438-Woodstock-Ln-94040/home/646424,,,,N,Y,37.359812,-122.073068,
Past Sale,Single Family Residential,1113 Remington Ct,Sunnyvale,CA,94087,,4,2.5,94087,2006,,1975,,,,,,,,,,2014-04-18,850000,http://www.redfin.com/CA/Sunnyvale/1113-Remington-Ct-94087/home/1223932,,,,N,Y,37.358963,-122.061871,
Past Sale,Single Family Residential,956 Trophy Dr,Mountain View,CA,94040,,4,2,94040,1816,,1972,,,,,,,,,,2013-08-27,1500000,http://www.redfin.com/CA/Mountain-View/956-Trophy-Dr-94040/home/644146,,,,N,Y,37.383105,-122.08921,
Past Sale,Single Family Residential,831 RUNNINGWOOD Cir,Mountain View,CA,94040,1399000,4,3,Mountain View,2592,5225,1977,2,Garage,,Sold,,,,,1399000,2014-03-14,1700000,http://www.redfin.com/CA/Mountain-View/831-Runningwood-Cir-94040/home/1423150,MLSListings Inc. (MLSLI),ML81406946,Coldwell Banker Los Altos,N,Y,37.370401,-122.062544,false
Past Sale,Single Family Residential,758 Rustic Ln,Mountain View,CA,94040,,4,3,94040,2235,,1975,,,,,,,,,,2014-09-26,1850000,http://www.redfin.com/CA/Mountain-View/758-Rustic-Ln-94040/home/1151219,,,,N,Y,37.380081,-122.085888,
Past Sale,Single Family Residential,1259 MARILYN Ct,Mountain View,CA,94040,1749000,4,3,Mountain View,2306,8374,2005,2,Garage,,Sold,,,,,1749000,2013-09-04,2318000,http://www.redfin.com/CA/Mountain-View/1259-Marilyn-Ct-94040/home/1592039,MLSListings Inc. (MLSLI),ML81331372,Intero Real Estate Services,N,Y,37.380665,-122.094108,false
Past Sale,Single Family Residential,1139 NILDA Ave,Mountain View,CA,94040,988000,3,2,Mountain View,1332,5406,1952,1,Garage,,Sold,,,,,988000,2013-01-18,1232100,http://www.redfin.com/CA/Mountain-View/1139-Nilda-Ave-94040/home/1834886,MLSListings Inc. (MLSLI),ML81300742,Coldwell Banker Los Altos,N,Y,37.380468,-122.079234,false
Past Sale,Single Family Residential,1584 Bonita Ave,Mountain View,CA,94040,,3,2,94040,1329,,1953,,,,,,,,,,2012-06-07,1270000,http://www.redfin.com/CA/Mountain-View/1584-Bonita-Ave-94040/home/1398029,,,,N,Y,37.375056,-122.08054,
Past Sale,Single Family Residential,1535 NILDA Ave,Mountain View,CA,94040,1138000,3,2,Mountain View,1248,5980,1955,2,Garage,,Sold,,,,,1138000,2013-03-20,1271000,http://www.redfin.com/CA/Mountain-View/1535-Nilda-Ave-94040/home/1484055,MLSListings Inc. (MLSLI),ML81307952,Alain Pinel Realtors,N,Y,37.375583,-122.079226,false
Past Sale,Single Family Residential,1112 Sussex Sq,Mountain View,CA,94040,,3,2,94040,1888,,1978,,,,,,,,,,2013-09-05,1375000,http://www.redfin.com/CA/Mountain-View/1112-Sussex-Sq-94040/home/769152,,,,N,Y,37.377868,-122.073132,
Past Sale,Single Family Residential,3414 SHADY SPRING Ln,Mountain View,CA,94040,1575000,4,2.5,Mountain View,2427,7956,1968,1,Garage,,Sold,,,,,1575000,2013-08-02,1756000,http://www.redfin.com/CA/Mountain-View/3414-Shady-Spring-Ln-94040/home/1212839,MLSListings Inc. (MLSLI),ML81327042,Coldwell Banker Los Altos,N,Y,37.360456,-122.07126,false
Past Sale,Single Family Residential,968 TROPHY Dr,Mountain View,CA,94040,1489000,4,2,Bell Meadows,1912,8249,1972,2,Garage,,Sold,,,,,1489000,2013-09-26,1810000,http://www.redfin.com/CA/Mountain-View/968-Trophy-Dr-94040/home/1240233,MLSListings Inc. (MLSLI),ML81334300,Alain Pinel Realtors,N,Y,37.383023,-122.089853,false
Past Sale,Single Family Residential,1192 Andre Ave,Mountain View,CA,94040,,3,2,94040,1727,,1965,,,,,,,,,,2012-07-24,1150000,http://www.redfin.com/CA/Mountain-View/1192-Andre-Ave-94040/home/646150,,,,N,Y,37.362706,-122.069426,
Past Sale,Single Family Residential,1123 Blue Lake Sq,Mountain View,CA,94040,,3,2,94040,1782,,1973,,,,,,,,,,2014-09-30,1400000,http://www.redfin.com/CA/Mountain-View/1123-Blue-Lake-Sq-94040/home/647782,,,,N,Y,37.358575,-122.069761,
Past Sale,Single Family Residential,2115 Sun Mor Ave,Mountain View,CA,94040,,3,2,94040,1751,,1952,,,,,,,,,,2014-02-20,1657500,http://www.redfin.com/CA/Mountain-View/2115-Sun-Mor-Ave-94040/home/1525547,,,,N,Y,37.37239,-122.069772,
Past Sale,Single Family Residential,2580 Westford Way,Mountain View,CA,94040,,4,2.5,94040,1943,,1966,,,,,,,,,,2012-10-22,1299000,http://www.redfin.com/CA/Mountain-View/2580-Westford-Way-94040/home/648912,,,,N,Y,37.366007,-122.069373,
Past Sale,Single Family Residential,1119 SUSSEX Sq,Mountain View,CA,94040,1199950,3,2,Mountain View,1712,5227,1978,2,Garage,,Sold,,,,,1199950,2013-07-31,1323000,http://www.redfin.com/CA/Mountain-View/1119-Sussex-Sq-94040/home/1558989,MLSListings Inc. (MLSLI),ML81326949,Alain Pinel Realtors,N,Y,37.377214,-122.072971,false
Past Sale,Single Family Residential,2131 JARDIN Dr,Mountain View,CA,94040,889000,3,1,Mountain View,1198,6400,1953,2,Garage,,Sold,,,,,889000,2012-05-24,1075000,http://www.redfin.com/CA/Mountain-View/2131-Jardin-Dr-94040/home/543344,MLSListings Inc. (MLSLI),ML81218576,Intero Real Estate Services,N,Y,37.38842,-122.104728,false
Past Sale,Single Family Residential,3573 GRANT Rd,Mountain View,CA,94040,1650000,3,2,Mountain View,1630,20300,1953,2,Garage,,Sold,,,,,1650000,2013-11-03,1750000,http://www.redfin.com/CA/Mountain-View/3573-Grant-Rd-94040/home/648728,MLSListings Inc. (MLSLI),ML81339496,Alain Pinel Realtors,N,Y,37.360291,-122.077307,false
Past Sale,Single Family Residential,192 PRESTON Dr,Mountain View,CA,94040,1698000,4,2.5,Winfield Park,2183,9400,1972,2,Garage,,Sold,,,,,1698000,2014-09-24,1888000,http://www.redfin.com/CA/Mountain-View/192-Preston-Dr-94040/home/1576029,MLSListings Inc. (MLSLI),ML81428659,Intero Real Estate Services,N,Y,37.363787,-122.076853,false
Past Sale,Single Family Residential,1172 Phyllis Ave,Mountain View,CA,94040,,3,2,94040,1665,,1955,,,,,,,,,,2014-02-21,1252000,http://www.redfin.com/CA/Mountain-View/1172-Phyllis-Ave-94040/home/644642,,,,N,Y,37.379641,-122.078042,
Past Sale,Single Family Residential,1508 Bonita Ave,Mountain View,CA,94040,,3,2,94040,1291,,1953,,,,,,,,,,2012-07-27,1100000,http://www.redfin.com/CA/Mountain-View/1508-Bonita-Ave-94040/home/648265,,,,N,Y,37.375949,-122.080542,
Past Sale,Single Family Residential,156 VILLA NUEVA Ct,Mountain View,CA,94040,1398000,3,2.5,Mountain View,1467,7000,1955,2,Garage,,Sold,,,,,1398000,2013-06-05,1550000,http://www.redfin.com/CA/Mountain-View/156-Villa-Nueva-Ct-94040/home/1096197,MLSListings Inc. (MLSLI),ML81318602,Intero Real Estate Services,N,Y,37.369315,-122.076173,false
Past Sale,Single Family Residential,1304 BONITA Ave,Mountain View,CA,94040,999888,3,2,Mountain View,1193,6045,1953,2,Garage,,Sold,,,,,999888,2013-01-15,1125000,http://www.redfin.com/CA/Mountain-View/1304-Bonita-Ave-94040/home/673370,MLSListings Inc. (MLSLI),ML81300013,Rollins Realty,N,Y,37.378091,-122.080544,false
Past Sale,Single Family Residential,2328 CAROL Ave,Mountain View,CA,94040,1425000,4,2,Mountain View,1885,7370,1958,2,Garage,,Sold,,,,,1425000,2014-01-30,1700000,http://www.redfin.com/CA/Mountain-View/2328-Carol-Ave-94040/home/1622732,MLSListings Inc. (MLSLI),ML81401877,Alain Pinel Realtors,N,Y,37.370787,-122.075185,false
Past Sale,Single Family Residential,1394 Nilda Ave,Mountain View,CA,94040,,3,2,94040,1688,,1955,,,,,,,,,,2012-10-05,1130000,http://www.redfin.com/CA/Mountain-View/1394-Nilda-Ave-94040/home/1113234,,,,N,Y,37.377367,-122.079707,
Past Sale,Single Family Residential,1606 Gretel Ln,Mountain View,CA,94040,,4,3,94040,1866,,1955,,,,,,,,,,2012-11-01,1250000,http://www.redfin.com/CA/Mountain-View/1606-Gretel-Ln-94040/home/856102,,,,N,Y,37.374555,-122.078898,
Past Sale,Single Family Residential,1483 Bonita Ave,Mountain View,CA,94040,,3,2,94040,1485,,1953,,,,,,,,,,2012-12-13,1150000,http://www.redfin.com/CA/Mountain-View/1483-Bonita-Ave-94040/home/648256,,,,N,Y,37.376301,-122.080032,
Past Sale,Single Family Residential,821 Vista Grande Ave,Los Altos,CA,94024,,4,4.5,94024,3798,,2008,,,,,,,,,,2013-08-20,3412500,http://www.redfin.com/CA/Los-Altos/821-Vista-Grande-Ave-94024/home/1392364,,,,N,Y,37.38441,-122.091314,
Past Sale,Single Family Residential,1884 MIRAMONTE Ave,Mountain View,CA,94040,1699000,3,2.5,Mountain View,2200,10611,1965,2,Garage,,Sold,,,,,1699000,2014-11-06,2050000,http://www.redfin.com/CA/Mountain-View/1884-Miramonte-Ave-94040/home/1462417,MLSListings Inc. (MLSLI),ML81438802,Alain Pinel Realtors,N,Y,37.369222,-122.087426,false
Past Sale,Single Family Residential,1934 Miramonte Ave,Mountain View,CA,94040,,4,2.5,94040,2433,,1963,,,,,,,,,,2013-03-14,1550000,http://www.redfin.com/CA/Mountain-View/1934-Miramonte-Ave-94040/home/644923,,,,N,Y,37.367419,-122.08734,
Past Sale,Single Family Residential,683 MOUNTAIN VIEW Ave,Mountain View,CA,94041,985000,3,2,Mountain View,1272,5000,1946,1,Garage,,Sold,,,,,985000,2012-09-02,940000,http://www.redfin.com/CA/Mountain-View/683-Mountain-View-Ave-94041/home/1459054,MLSListings Inc. (MLSLI),ML81230121,Coldwell Banker,N,Y,37.389888,-122.088008,false
Past Sale,Single Family Residential,54 Starr Way,Mountain View,CA,94040,,3,1,94040,1139,,1948,,,,,,,,,,2012-12-21,1136000,http://www.redfin.com/CA/Mountain-View/54-Starr-Way-94040/home/742944,,,,N,Y,37.379273,-122.088379,
Past Sale,Single Family Residential,1912 Adams Ct,Mountain View,CA,94040,,3,3,94040,2433,,1963,,,,,,,,,,2014-10-31,2200000,http://www.redfin.com/CA/Mountain-View/1912-Adams-Ct-94040/home/894537,,,,N,Y,37.367866,-122.088233,
Past Sale,Single Family Residential,823 Harpster Dr,Mountain View,CA,94040,,3,2.5,94040,1681,,1950,,,,,,,,,,2013-04-19,1100000,http://www.redfin.com/CA/Mountain-View/823-Harpster-Dr-94040/home/1228509,,,,N,Y,37.383549,-122.085908,
Past Sale,Single Family Residential,295 MOUNTAIN VIEW Ave,Mountain View,CA,94041,1098000,3,2,Mountain View,1788,4500,1923,,,,Sold,,,,,1098000,2014-04-11,1150000,http://www.redfin.com/CA/Mountain-View/295-Mountain-View-Ave-94041/home/1291789,MLSListings Inc. (MLSLI),ML81410990,Catherine Gortner Properties,N,Y,37.3948,-122.085005,false
Past Sale,Single Family Residential,736 Cuesta Dr,Mountain View,CA,94040,,4,2,94040,1620,,1955,,,,,,,,,,2014-08-25,1650000,http://www.redfin.com/CA/Mountain-View/736-Cuesta-Dr-94040/home/1462510,,,,N,Y,37.373911,-122.08369,
Past Sale,Single Family Residential,1614 MONTALTO Dr,Mountain View,CA,94040,1500000,4,2,Mountain View,1910,6780,1955,2,Garage,,Sold,,,,,1500000,2014-04-29,1880000,http://www.redfin.com/CA/Mountain-View/1614-Montalto-Dr-94040/home/1223817,MLSListings Inc. (MLSLI),ML81412765,Intero Real Estate Services,N,Y,37.376781,-122.084496,false
Past Sale,Single Family Residential,384 N Clark Ave,Los Altos,CA,94022,,3,3,94022,1618,,1951,,,,,,,,,,2013-01-23,2350000,http://www.redfin.com/CA/Los-Altos/384-N-Clark-Ave-94022/home/1345970,,,,N,Y,37.388425,-122.101441,
Past Sale,Single Family Residential,2067 Marich Way,Mountain View,CA,94040,,3,2,94040,1267,,1953,,,,,,,,,,2012-09-14,1085000,http://www.redfin.com/CA/Mountain-View/2067-Marich-Way-94040/home/1785708,,,,N,Y,37.392279,-122.101209,
Past Sale,Single Family Residential,1013 KAREN Way,Mountain View,CA,94040,1349000,3,2,Mountain View,1540,5670,1952,1,Garage,,Sold,,,,,1349000,2014-02-04,1610000,http://www.redfin.com/CA/Mountain-View/1013-Karen-Way-94040/home/636886,MLSListings Inc. (MLSLI),ML81402663,Alain Pinel Realtors,N,Y,37.392556,-122.102254,false
Past Sale,Single Family Residential,1889 Orangetree Ln,Mountain View,CA,94040,,4,3,94040,3119,,1985,,,,,,,,,,2012-10-02,1650000,http://www.redfin.com/CA/Mountain-View/1889-Orangetree-Ln-94040/home/1309897,,,,N,Y,37.368354,-122.09396,
Past Sale,Single Family Residential,1502 Ernestine Ln,Mountain View,CA,94040,,3,2,94040,1323,,1953,,,,,,,,,,2012-07-20,1161000,http://www.redfin.com/CA/Mountain-View/1502-Ernestine-Ln-94040/home/644121,,,,N,Y,37.386494,-122.093475,
Past Sale,Single Family Residential,1840 APPLETREE Ln,Mountain View,CA,94040,1399000,3,2,Mountain View,1280,6510,1956,2,Garage,,Sold,,,,,1399000,2013-01-23,1550000,http://www.redfin.com/CA/Mountain-View/1840-Appletree-Ln-94040/home/1187485,MLSListings Inc. (MLSLI),ML81300885,Alain Pinel Realtors,N,Y,37.369884,-122.093568,false
Past Sale,Single Family Residential,1549 MELBA Ct,Mountain View,CA,94040,1300000,3,2,St Francis Acres,1404,5520,1954,2,Garage,,Sold,,,,,1300000,2013-07-03,1325000,http://www.redfin.com/CA/Mountain-View/1549-Melba-Ct-94040/home/642932,MLSListings Inc. (MLSLI),ML81322993,Intero Real Estate Services,N,Y,37.387347,-122.092236,false
Past Sale,Single Family Residential,1867 LIMETREE Ln,Mountain View,CA,94040,1798000,4,2,Mountain View,1881,8505,1961,2,Garage,,Sold,,,,,1798000,2013-04-10,1900000,http://www.redfin.com/CA/Mountain-View/1867-Limetree-Ln-94040/home/1273381,MLSListings Inc. (MLSLI),ML81309752,Intero Real Estate Services,N,Y,37.36905,-122.094853,false
Past Sale,Single Family Residential,1255 Marilyn Ct,Mountain View,CA,94040,,3,2.5,94040,2077,,1963,,,,,,,,,,2013-08-21,1580000,http://www.redfin.com/CA/Mountain-View/1255-Marilyn-Ct-94040/home/1346237,,,,N,Y,37.380476,-122.093972,
Past Sale,Single Family Residential,1729 MARICH Way,Mountain View,CA,94040,1099000,4,3,Mountain View,1850,3860,2006,2,Garage,,Sold,,,,2012-11-30,1224000,2013-02-19,970000,http://www.redfin.com/CA/Mountain-View/1729-Marich-Way-94040/home/12172557,MLSListings Inc. (MLSLI),ML81237271,Sereno Group,N,Y,37.390683,-122.09657,false
Past Sale,Single Family Residential,4317 Silva Ave,Palo Alto,CA,94306,,3,2,94306,1761,,1951,,,,,,,,,,2013-08-28,1525000,http://www.redfin.com/CA/Palo-Alto/4317-Silva-Ave-94306/home/12171502,,,,N,Y,37.408856,-122.114374,
Past Sale,Single Family Residential,284 Farley St,Mountain View,CA,94043,,3,2,94043,1426,,1950,,,,,,,,,,2014-07-14,1230000,http://www.redfin.com/CA/Mountain-View/284-Farley-St-94043/home/1174233,,,,N,Y,37.402561,-122.090166,
Past Sale,Single Family Residential,257 Farley St,Mountain View,CA,94043,,3,1,94043,1000,,1950,,,,,,,,,,2014-04-22,975100,http://www.redfin.com/CA/Mountain-View/257-Farley-St-94043/home/1771526,,,,N,Y,37.402071,-122.089791,
Past Sale,Single Family Residential,265 MARIPOSA Ave,Mountain View,CA,94041,1298000,4,3.5,Mountain View,2308,6970,2008,2,Garage,,Sold,,,,,1298000,2012-09-04,1328000,http://www.redfin.com/CA/Mountain-View/265-Mariposa-Ave-94041/home/17294266,MLSListings Inc. (MLSLI),ML81231464,Coldwell Banker Los Altos,N,Y,37.39627,-122.088008,false
Past Sale,Single Family Residential,1790 Hackett Ave,Mountain View,CA,94043,,3,1,94043,860,,1950,,,,,,,,,,2014-06-26,998000,http://www.redfin.com/CA/Mountain-View/1790-Hackett-Ave-94043/home/613978,,,,N,Y,37.402331,-122.088044,
Past Sale,Single Family Residential,1861 MONTECITO Ave,Mountain View,CA,94043,928000,4,2,Mountain View,1850,5400,1950,1,Garage,,Sold,,,,,928000,2013-02-22,1110000,http://www.redfin.com/CA/Mountain-View/1861-Montecito-Ave-94043/home/893684,MLSListings Inc. (MLSLI),ML81304347,Keller Williams Palo Alto,N,Y,37.4043,-122.088207,false
Past Sale,Single Family Residential,1797 Wagner Ave,Mountain View,CA,94043,,4,3,94043,2325,,2008,,,,,,,,,,2014-08-18,1470000,http://www.redfin.com/CA/Mountain-View/1797-Wagner-Ave-94043/home/1527086,,,,N,Y,37.405463,-122.08715,
Past Sale,Single Family Residential,1893 SAN LUIS Ave,Mountain View,CA,94043,988000,3,2,Mountain View,1197,5049,1951,2,Garage,,Sold,,,,,988000,2014-06-25,1315000,http://www.redfin.com/CA/Mountain-View/1893-San-Luis-Ave-94043/home/763460,MLSListings Inc. (MLSLI),ML81421856,Coldwell Banker Los Altos,N,Y,37.406466,-122.087697,false
Past Sale,Single Family Residential,181 BEATRICE St,Mountain View,CA,94043,1150000,4,2,Mountain View,2610,5980,1950,2,Garage,,Sold,,,,,1150000,2013-03-17,1200000,http://www.redfin.com/CA/Mountain-View/181-Beatrice-St-94043/home/614418,MLSListings Inc. (MLSLI),ML81307792,Intero Real Estate Services,N,Y,37.400754,-122.088332,false
Past Sale,Single Family Residential,1926 Montecito Ave,Mountain View,CA,94043,,3,2,94043,1193,,1955,,,,,,,,,,2013-08-28,920000,http://www.redfin.com/CA/Mountain-View/1926-Montecito-Ave-94043/home/1082783,,,,N,Y,37.405456,-122.090906,
Past Sale,Single Family Residential,279 COLLEGE St,Mountain View,CA,94040,1470000,3,1,Mountain View,1200,11790,1935,1,Garage,,Sold,,,,,1470000,2014-09-17,1500000,http://www.redfin.com/CA/Mountain-View/279-College-St-94040/home/2120595,MLSListings Inc. (MLSLI),ML81433316,Campi Properties,N,Y,37.40111,-122.100651,false
Past Sale,Single Family Residential,1745 Hackett Ave,Mountain View,CA,94043,,4,2.5,94043,1326,,1950,,,,,,,,,,2014-09-09,865000,http://www.redfin.com/CA/Mountain-View/1745-Hackett-Ave-94043/home/614358,,,,N,Y,37.401648,-122.087275,
Past Sale,Single Family Residential,489 Emmons Dr,Mountain View,CA,94043,,3,2,94043,1137,,1954,,,,,,,,,,2012-05-30,910000,http://www.redfin.com/CA/Mountain-View/489-Emmons-Dr-94043/home/1396698,,,,N,Y,37.41003,-122.097168,
Past Sale,Single Family Residential,2302 Jewell Pl,Mountain View,CA,94043,,3,2,94043,1104,,1955,,,,,,,,,,2013-03-27,792000,http://www.redfin.com/CA/Mountain-View/2302-Jewell-Pl-94043/home/1771315,,,,N,Y,37.407244,-122.095347,
Past Sale,Single Family Residential,2447 Thaddeus Dr,Mountain View,CA,94043,,3,2,94043,1137,,1954,,,,,,,,,,2012-05-30,860000,http://www.redfin.com/CA/Mountain-View/2447-Thaddeus-Dr-94043/home/608210,,,,N,Y,37.411181,-122.098224,
Past Sale,Single Family Residential,319 Thompson Ave,Mountain View,CA,94043,,3,2,94043,1632,,1955,,,,,,,,,,2012-07-25,820000,http://www.redfin.com/CA/Mountain-View/319-Thompson-Ave-94043/home/1668784,,,,N,Y,37.40763,-122.098275,
Past Sale,Single Family Residential,2368 Thompson Ct,Mountain View,CA,94043,,3,2,94043,1104,,1955,,,,,,,,,,2012-08-24,851000,http://www.redfin.com/CA/Mountain-View/2368-Thompson-Ct-94043/home/1652991,,,,N,Y,37.408935,-122.096853,
Past Sale,Single Family Residential,1864 DOANE Ave,Mountain View,CA,94043,849000,3,1,Mountain View,832,5928,1951,1,Garage,,Sold,,,,,849000,2014-10-01,905000,http://www.redfin.com/CA/Mountain-View/1864-Doane-Ave-94043/home/1797736,MLSListings Inc. (MLSLI),ML81434770,Sereno Group,N,Y,37.407523,-122.087246,false
Past Sale,Single Family Residential,424 Dell Ave,Mountain View,CA,94043,,3,2,94043,1223,,1955,,,,,,,,,,2014-03-24,1125000,http://www.redfin.com/CA/Mountain-View/424-Dell-Ave-94043/home/763355,,,,N,Y,37.410491,-122.101836,
Past Sale,Single Family Residential,2494 Betlo Ave,Mountain View,CA,94043,,4,2,94043,1216,,1956,,,,,,,,,,2013-05-30,960000,http://www.redfin.com/CA/Mountain-View/2494-Betlo-Ave-94043/home/608350,,,,N,Y,37.409792,-122.103113,
Past Sale,Single Family Residential,480 Quincy Dr,Mountain View,CA,94043,,3,2,94043,1576,,1954,,,,,,,,,,2013-12-03,1220000,http://www.redfin.com/CA/Mountain-View/480-Quincy-Dr-94043/home/1090914,,,,N,Y,37.411173,-122.100027,
Past Sale,Single Family Residential,2413 Laura Ln,Mountain View,CA,94043,,3,2,94043,1344,,1955,,,,,,,,,,2012-06-05,898000,http://www.redfin.com/CA/Mountain-View/2413-Laura-Ln-94043/home/1222424,,,,N,Y,37.407574,-122.099615,
Past Sale,Single Family Residential,2447 Whitney Ct,Mountain View,CA,94043,,3,2,94043,1280,,1955,,,,,,,,,,2014-10-29,1245000,http://www.redfin.com/CA/Mountain-View/2447-Whitney-Ct-94043/home/1005974,,,,N,Y,37.407182,-122.101476,
Past Sale,Single Family Residential,2458 ALVIN St,Mountain View,CA,94043,1225000,4,2,Monta Loma,1375,7000,1954,2,Garage,,Sold,,,,,1225000,2014-05-22,1400000,http://www.redfin.com/CA/Mountain-View/2458-Alvin-St-94043/home/608220,MLSListings Inc. (MLSLI),ML81416681,Coldwell Banker Los Altos,N,Y,37.41151,-122.099346,false
Past Sale,Single Family Residential,2459 ELKA Ave,Mountain View,CA,94043,1198000,3,2,Mountain View,1216,5250,1956,2,Garage,,Sold,,,,,1198000,2014-11-13,1412000,http://www.redfin.com/CA/Mountain-View/2459-Elka-Ave-94043/home/868229,MLSListings Inc. (MLSLI),ML81439499,Coldwell Banker Los Altos,N,Y,37.410121,-122.100762,false
Past Sale,Single Family Residential,321 ANNA Ave,Mountain View,CA,94043,1198000,3,2,Monta Loma,1216,5000,1956,2,Garage,,Sold,,,,,1198000,2014-09-11,1400000,http://www.redfin.com/CA/Mountain-View/321-Anna-Ave-94043/home/1821766,MLSListings Inc. (MLSLI),ML81432008,Coldwell Banker Los Altos,N,Y,37.408492,-122.101183,false
Past Sale,Single Family Residential,2549 DELL Ave,Mountain View,CA,94043,949000,3,2,Mountain View,1216,6000,1959,2,Garage,,Sold,,,,,949000,2013-09-04,1038000,http://www.redfin.com/CA/Mountain-View/2549-Dell-Ave-94043/home/607505,MLSListings Inc. (MLSLI),ML81331868,Coldwell Banker-Menlo Park Santa Cruz,N,Y,37.411142,-122.103807,false
Past Sale,Single Family Residential,836 JACKSON St,Mountain View,CA,94043,1295000,3,3,Mountain View,1609,4550,1946,2,Garage,,Sold,,,,,1295000,2014-08-07,1240000,http://www.redfin.com/CA/Mountain-View/836-Jackson-St-94043/home/1747397,MLSListings Inc. (MLSLI),ML81425241,Coldwell Banker Los Altos,N,Y,37.397506,-122.077339,false
Past Sale,Single Family Residential,1798 Spring St,Mountain View,CA,94043,,3,2,94043,1464,,1955,,,,,,,,,,2014-06-27,905000,http://www.redfin.com/CA/Mountain-View/1798-Spring-St-94043/home/1095360,,,,N,Y,37.413904,-122.086336,
Past Sale,Single Family Residential,1762 Elsie Ave,Mountain View,CA,94043,,3,1,94043,882,,1950,,,,,,,,,,2013-07-11,850000,http://www.redfin.com/CA/Mountain-View/1762-Elsie-Ave-94043/home/1021968,,,,N,Y,37.404963,-122.086733,
Past Sale,Single Family Residential,968 San Marcos Cir,Mountain View,CA,94043,,3,2,94043,1415,,1964,,,,,,,,,,2013-08-16,1015000,http://www.redfin.com/CA/Mountain-View/968-San-Marcos-Cir-94043/home/1222735,,,,N,Y,37.407117,-122.082954,
Past Sale,Single Family Residential,935 San Pierre Way,Mountain View,CA,94043,,4,2,94043,1576,,1964,,,,,,,,,,2013-09-10,1090000,http://www.redfin.com/CA/Mountain-View/935-San-Pierre-Way-94043/home/893706,,,,N,Y,37.405896,-122.082081,
Past Sale,Single Family Residential,1790 SPRING St,Mountain View,CA,94043,850000,3,2,Mountain View,1104,5663,1955,2,Garage,,Sold,,,,,850000,2014-07-24,865000,http://www.redfin.com/CA/Mountain-View/1790-Spring-St-94043/home/607427,MLSListings Inc. (MLSLI),ML81425307,JS Realty,N,Y,37.41389,-122.086128,false
Past Sale,Single Family Residential,1588 Spring St,Mountain View,CA,94043,,3,2,94043,1438,,1956,,,,,,,,,,2013-10-22,835000,http://www.redfin.com/CA/Mountain-View/1588-Spring-St-94043/home/620212,,,,N,Y,37.412835,-122.081477,
Past Sale,Single Family Residential,726 Telford Ave,Mountain View,CA,94043,,3,2,94043,1104,,1955,,,,,,,,,,2013-02-15,669000,http://www.redfin.com/CA/Mountain-View/726-Telford-Ave-94043/home/1710346,,,,N,Y,37.412702,-122.086462,
Past Sale,Single Family Residential,1602 Morgan St,Mountain View,CA,94043,,4,2,94043,1425,,1976,,,,,,,,,,2012-08-31,750000,http://www.redfin.com/CA/Mountain-View/1602-Morgan-St-94043/home/1591308,,,,N,Y,37.411908,-122.081369,
Past Sale,Single Family Residential,976 Burgoyne St,Mountain View,CA,94043,,3,2,94043,1346,,2007,,,,,,,,,,2012-09-21,899000,http://www.redfin.com/CA/Mountain-View/976-Burgoyne-St-94043/home/578105,,,,N,Y,37.406804,-122.085958,
Past Sale,Single Family Residential,736 Vaquero Dr,Mountain View,CA,94043,,4,2,94043,1576,,1964,,,,,,,,,,2012-07-03,830000,http://www.redfin.com/CA/Mountain-View/736-Vaquero-Dr-94043/home/1557913,,,,N,Y,37.404222,-122.080378,
Past Sale,Single Family Residential,1160 Barbara Ave,Mountain View,CA,94040,,3,2,94040,1795,,1954,,,,,,,,,,2015-02-25,1950000,http://www.redfin.com/CA/Mountain-View/1160-Barbara-Ave-94040/home/1174391,,,,N,Y,37.377403,-122.091435,
Past Sale,Single Family Residential,2700 WASATCH Dr,Mountain View,CA,94040,1598000,4,2,Mountain View,1802,8056,1963,2,Garage,,Sold,,,,,1598000,2014-07-25,1675000,http://www.redfin.com/CA/Mountain-View/2700-Wasatch-Dr-94040/home/1096206,MLSListings Inc. (MLSLI),ML81425641,Intero Real Estate Services,N,Y,37.365642,-122.066621,false
Past Sale,Single Family Residential,2737 Ramos Ct,Mountain View,CA,94040,,4,3,94040,2248,,1972,,,,,,,,,,2014-11-18,1703000,http://www.redfin.com/CA/Mountain-View/2737-Ramos-Ct-94040/home/648945,,,,N,Y,37.363872,-122.063738,
Past Sale,Single Family Residential,493 Chiquita Ave,Mountain View,CA,94041,,3,1,94041,905,,1949,,,,,,,,,,2012-06-27,753000,http://www.redfin.com/CA/Mountain-View/493-Chiquita-Ave-94041/home/616727,,,,N,Y,37.394333,-122.091314,
Past Sale,Single Family Residential,803 Emily Dr,MOUNTAIN VIEW,CA,94043,835000,3,2,MOUNTAIN VIEW,1310,5400,1954,0,,,Sold,,,,,835000,2015-03-25,925000,http://www.redfin.com/CA/Mountain-View/803-Emily-Dr-94043/home/1575435,MLSListings Inc. (MLSLI),ML81455819,Intero Real Estate Services,N,Y,37.404469,-122.065738,false
Past Sale,Single Family Residential,1610 Yale Dr,Mountain View,CA,94040,,3,2,94040,1240,,1954,,,,,,,,,,2013-01-31,900000,http://www.redfin.com/CA/Mountain-View/1610-Yale-Dr-94040/home/742958,,,,N,Y,37.37629,-122.093679,
Past Sale,Single Family Residential,927 BARBARA Ave,Mountain View,CA,94040,1695000,4,2,Mountain View,1957,10773,1948,2,Garage,,Sold,,,,,1695000,2014-11-12,1900000,http://www.redfin.com/CA/Mountain-View/927-Barbara-Ave-94040/home/1198272,MLSListings Inc. (MLSLI),ML81439496,Intero Real Estate Services,N,Y,37.376939,-122.087906,false
Past Sale,Single Family Residential,594 Leona Ln,Mountain View,CA,94040,,3,2,94040,1196,,1955,,,,,,,,,,2012-07-17,980000,http://www.redfin.com/CA/Mountain-View/594-Leona-Ln-94040/home/1137611,,,,N,Y,37.375956,-122.081768,
Past Sale,Single Family Residential,127 WAVERLY Pl,Mountain View,CA,94040,1725000,3,2,Mountain View,1875,8034,1962,2,Garage,,Sold,,,,,1725000,2014-10-31,1880000,http://www.redfin.com/CA/Mountain-View/127-Waverly-Pl-94040/home/1592241,MLSListings Inc. (MLSLI),ML81438146,Coldwell Banker,N,Y,37.359191,-122.076239,false
Past Sale,Single Family Residential,1721 Joel Way,Los Altos,CA,94024,,3,2.5,94024,1703,,1961,,,,,,,,,,2014-06-13,1650000,http://www.redfin.com/CA/Los-Altos/1721-Joel-Way-94024/home/1462501,,,,N,Y,37.35937,-122.064652,
Past Sale,Single Family Residential,1413 Gilmore St,Mountain View,CA,94040,,3,2,94040,1615,,1954,,,,,,,,,,2012-10-05,1300000,http://www.redfin.com/CA/Mountain-View/1413-Gilmore-St-94040/home/729601,,,,N,Y,37.384788,-122.091951,
Past Sale,Single Family Residential,1863 ORANGETREE Ln,Mountain View,CA,94040,1699000,4,2.5,Mountain View,2465,8610,1971,2,Garage,,Sold,,,,,1699000,2012-11-22,1951000,http://www.redfin.com/CA/Mountain-View/1863-Orangetree-Ln-94040/home/1772729,MLSListings Inc. (MLSLI),ML81240903,Alain Pinel Realtors,N,Y,37.369262,-122.093954,false
Past Sale,Single Family Residential,1118 Cuesta Dr,Mountain View,CA,94040,,3,3.5,94040,2287,,1955,,,,,,,,,,2012-10-30,1525000,http://www.redfin.com/CA/Mountain-View/1118-Cuesta-Dr-94040/home/1772731,,,,N,Y,37.373617,-122.093942,
Past Sale,Single Family Residential,2346 Hilo Ct,Mountain View,CA,94040,,4,2,94040,2015,,1976,,,,,,,,,,2012-09-19,1500000,http://www.redfin.com/CA/Mountain-View/2346-Hilo-Ct-94040/home/648612,,,,N,Y,37.370233,-122.074017,
Past Sale,Single Family Residential,131 Easy St,Mountain View,CA,94043,1438000,4,3.5,Apricot Commons,1898,1654,2015,2,Garage,,Sold,,,,,1423000,2015-02-03,1438000,http://www.redfin.com/CA/Mountain-View/131-Easy-St-94043/home/58251523,MLSListings Inc. (MLSLI),ML81433711,Charles R. Baldwin~ Broker,N,Y,37.393364,-122.067668,false
Past Sale,Single Family Residential,278 Bonny St,Mountain View,CA,94043,,3,2,94043,1459,,1950,,,,,,,,,,2015-02-26,1375000,http://www.redfin.com/CA/Mountain-View/278-Bonny-St-94043/home/612673,,,,N,Y,37.402251,-122.089346,
Past Sale,Single Family Residential,436 Dell Ave,Mountain View,CA,94043,,4,2,94043,1216,,1955,,,,,,,,,,2015-01-06,1400000,http://www.redfin.com/CA/Mountain-View/436-Dell-Ave-94043/home/1526930,,,,N,Y,37.410734,-122.101597,
Past Sale,Condo/Coop,847 Runningwood Cir,Mountain View,CA,94040,,2,2,94040,1497,,1977,,,,,,,,,,2013-09-04,1035000,http://www.redfin.com/CA/Mountain-View/847-Runningwood-Cir-94040/home/649387,,,,N,Y,37.369866,-122.06416,
Past Sale,Single Family Residential,914 SLEEPER Ave,Mountain View,CA,94040,1685000,3,3,Sun-Mor Terrace,1689,10440,1952,2,Garage,,Sold,,,,,1685000,2014-11-17,1710000,http://www.redfin.com/CA/Mountain-View/914-Sleeper-Ave-94040/home/880114,MLSListings Inc. (MLSLI),ML81440762,Intero Real Estate Services,N,Y,37.371841,-122.069664,false
Past Sale,Single Family Residential,111 Savannah Loop (Unable to map),Mountain View,CA,94043,,,,94043,,,,,,,,,,,,,2015-03-12,1300000,http://www.redfin.com/CA/Mountain-View/111-Savannah-Loop-94043/home/58425686,,,,N,Y,37.3994,-122.0637,
Past Sale,Single Family Residential,2557 Fairbrook Dr,Mountain View,CA,94040,,4,2.5,94040,2326,,1963,,,,,,,,,,2012-12-18,1388000,http://www.redfin.com/CA/Mountain-View/2557-Fairbrook-Dr-94040/home/1654274,,,,N,Y,37.366452,-122.066982,
Past Sale,Single Family Residential,3378 BEAUMONT Sq,Mountain View,CA,94040,1399000,4,2.5,Mountain View,2334,7980,1980,2,Garage,,Sold,,,,,1399000,2012-06-26,1560000,http://www.redfin.com/CA/Mountain-View/3378-Beaumont-Sq-94040/home/1575914,MLSListings Inc. (MLSLI),ML81222162,Alain Pinel Realtors,N,Y,37.361974,-122.074901,false
Past Sale,Single Family Residential,3370 BROWER Ave,Mountain View,CA,94040,1798000,3,2.5,Mountain View,2292,8625,1976,1,Garage,,Sold,,,,,1798000,2014-08-28,2066000,http://www.redfin.com/CA/Mountain-View/3370-Brower-Ave-94040/home/1575952,MLSListings Inc. (MLSLI),ML81430531,Intero Real Estate Services,N,Y,37.362793,-122.06615,false
Past Sale,Single Family Residential,3363 LUBICH Dr,Mountain View,CA,94040,995000,4,2.5,Mountain View,1873,9100,1963,2,Garage,,Sold,,,,,995000,2013-03-02,1200000,http://www.redfin.com/CA/Mountain-View/3363-Lubich-Dr-94040/home/1529700,MLSListings Inc. (MLSLI),ML81304969,Sereno Group,N,Y,37.363263,-122.063363,false
Past Sale,Single Family Residential,1191 Awalt Dr,Mountain View,CA,94040,,4,2.5,94040,2720,,1966,,,,,,,,,,2013-07-03,1570000,http://www.redfin.com/CA/Mountain-View/1191-Awalt-Dr-94040/home/1414113,,,,N,Y,37.362987,-122.069476,
Past Sale,Single Family Residential,1244 Lubich Dr,Mountain View,CA,94040,,4,2.5,94040,2292,,1976,,,,,,,,,,2013-07-01,1463500,http://www.redfin.com/CA/Mountain-View/1244-Lubich-Dr-94040/home/607966,,,,N,Y,37.363427,-122.065787,
Past Sale,Single Family Residential,727 Sunshine Dr,Los Altos,CA,94024,,3,1.5,94024,1798,,1951,,,,,,,,,,2013-06-21,1725000,http://www.redfin.com/CA/Los-Altos/727-Sunshine-Dr-94024/home/897216,,,,N,Y,37.379444,-122.094901,
Past Sale,Single Family Residential,113 Bryant Ave,Mountain View,CA,94040,,3,2,94040,1571,,1952,,,,,,,,,,2012-06-06,1260000,http://www.redfin.com/CA/Mountain-View/113-Bryant-Ave-94040/home/1137890,,,,N,Y,37.361035,-122.077569,
Past Sale,Single Family Residential,2521 Westford Way,Mountain View,CA,94040,,3,2,94040,2093,,1967,,,,,,,,,,2013-06-28,1450000,http://www.redfin.com/CA/Mountain-View/2521-Westford-Way-94040/home/648898,,,,N,Y,37.367302,-122.068837,
Past Sale,Single Family Residential,522 CHESLEY Ct,Mountain View,CA,94040,1798000,4,3,Waverly Park,2322,9375,1965,2,Garage,,Sold,,,,,1798000,2014-10-08,2225000,http://www.redfin.com/CA/Mountain-View/522-Chesley-Ct-94040/home/980066,MLSListings Inc. (MLSLI),ML81435807,Intero Real Estate Services,N,Y,37.366782,-122.071229,false
Past Sale,Single Family Residential,526 Chesley Ct,Mountain View,CA,94040,,4,2.5,94040,2233,,1966,,,,,,,,,,2014-09-10,1820000,http://www.redfin.com/CA/Mountain-View/526-Chesley-Ct-94040/home/1398030,,,,N,Y,37.366723,-122.070956,
Past Sale,Single Family Residential,955 Trophy Dr,Mountain View,CA,94040,,3,2,94040,1606,,1972,,,,,,,,,,2013-02-20,1405000,http://www.redfin.com/CA/Mountain-View/955-Trophy-Dr-94040/home/869299,,,,N,Y,37.382683,-122.088924,
Past Sale,Single Family Residential,2158 Jardin Dr,Mountain View,CA,94040,,3,1,94040,1006,,1952,,,,,,,,,,2014-11-06,1438000,http://www.redfin.com/CA/Mountain-View/2158-Jardin-Dr-94040/home/1575747,,,,N,Y,37.38884,-122.1053,
Past Sale,Single Family Residential,1566 Thomas Ct,Mountain View,CA,94040,,3,2.5,94040,1826,,1953,,,,,,,,,,2013-04-05,1701000,http://www.redfin.com/CA/Mountain-View/1566-Thomas-Ct-94040/home/643488,,,,N,Y,37.387486,-122.094429,
Past Sale,Single Family Residential,1133 EL MONTE Ave,Mountain View,CA,94040,1800000,3,2.5,Mountain View,2085,6105,1984,1,Garage,,Sold,,,,,1800000,2014-08-21,1775000,http://www.redfin.com/CA/Mountain-View/1133-El-Monte-Ave-94040/home/1508488,MLSListings Inc. (MLSLI),ML81426680,Dreyfus Sotheby's International Realty,N,Y,37.387288,-122.095655,false
Past Sale,Single Family Residential,1874 Anthony Ct,Mountain View,CA,94040,,3,3.5,94040,2040,,1952,,,,,,,,,,2013-07-03,1720000,http://www.redfin.com/CA/Mountain-View/1874-Anthony-Ct-94040/home/1392188,,,,N,Y,37.390557,-122.0979,
Past Sale,Single Family Residential,1113 Clark Ave,Mountain View,CA,94040,,3,1,94040,974,,1951,,,,,,,,,,2014-07-01,1361000,http://www.redfin.com/CA/Mountain-View/1113-Clark-Ave-94040/home/1628041,,,,N,Y,37.389896,-122.100784,
Past Sale,Single Family Residential,1032 Blackfield Way,Mountain View,CA,94040,,4,3.5,94040,2062,,2006,,,,,,,,,,2013-12-31,1550000,http://www.redfin.com/CA/Mountain-View/1032-Blackfield-Way-94040/home/2121552,,,,N,Y,37.391037,-122.098765,
Past Sale,Single Family Residential,1304 Mercy St,Mountain View,CA,94041,,3,2,94041,1050,,1900,,,,,,,,,,2012-06-01,845000,http://www.redfin.com/CA/Mountain-View/1304-Mercy-St-94041/home/1197335,,,,N,Y,37.392493,-122.0869,
Past Sale,Single Family Residential,447 Alicia Way,Los Altos,CA,94022,,3,2,94022,2221,,1952,,,,,,,,,,2013-10-25,2100000,http://www.redfin.com/CA/Los-Altos/447-Alicia-Way-94022/home/1785656,,,,N,Y,37.389505,-122.105436,
Past Sale,Single Family Residential,1036 ASHLEY Pl,Mountain View,CA,94040,1295000,3,2.5,Mountain View,1721,5136,1954,1,Garage,,Sold,,,,,1295000,2014-01-22,1603000,http://www.redfin.com/CA/Mountain-View/1036-Ashley-Pl-94040/home/1602991,MLSListings Inc. (MLSLI),ML81401332,Intero Real Estate Services,N,Y,37.392046,-122.101388,false
Past Sale,Single Family Residential,1418 Meadow Ln,Mountain View,CA,94040,,3,2,94040,1621,,1953,,,,,,,,,,2012-06-08,1310000,http://www.redfin.com/CA/Mountain-View/1418-Meadow-Ln-94040/home/1654040,,,,N,Y,37.380635,-122.093132,
Past Sale,Single Family Residential,2480 Whitney Dr,Mountain View,CA,94043,,3,2,94043,1678,,1970,,,,,,,,,,2014-06-09,1200000,http://www.redfin.com/CA/Mountain-View/2480-Whitney-Dr-94043/home/1482778,,,,N,Y,37.408539,-122.102531,
Past Sale,Single Family Residential,128 Palmer Ave,Mountain View,CA,94043,,3,2,94043,1302,,1956,,,,,,,,,,2013-11-20,1305000,http://www.redfin.com/CA/Mountain-View/128-Palmer-Ave-94043/home/577934,,,,N,Y,37.404542,-122.098854,
Past Sale,Single Family Residential,2345 Adele Ave,Mountain View,CA,94043,,3,2,94043,1389,,1956,,,,,,,,,,2012-08-29,700000,http://www.redfin.com/CA/Mountain-View/2345-Adele-Ave-94043/home/1112139,,,,N,Y,37.40426,-122.099247,
Past Sale,Single Family Residential,1060 Boranda Ave,Mountain View,CA,94040,,4,3,94040,1658,,1941,,,,,,,,,,2014-10-31,1400000,http://www.redfin.com/CA/Mountain-View/1060-Boranda-Ave-94040/home/578968,,,,N,Y,37.381823,-122.082556,
Past Sale,Single Family Residential,711 Leong Dr,Mountain View,CA,94043,,3,1,94043,960,,1954,,,,,,,,,,2013-04-10,705000,http://www.redfin.com/CA/Mountain-View/711-Leong-Dr-94043/home/708544,,,,N,Y,37.40404,-122.067633,
Past Sale,Single Family Residential,652 Cuesta Dr,Mountain View,CA,94040,,4,2,94040,1939,,1956,,,,,,,,,,2014-10-29,1776000,http://www.redfin.com/CA/Mountain-View/652-Cuesta-Dr-94040/home/980040,,,,N,Y,37.37384,-122.08082,
Past Sale,Single Family Residential,108 Beacon St,Mountain View,CA,94040,,3,2.5,94040,1935,,1995,,,,,,,,,,2012-08-07,243500,http://www.redfin.com/CA/Mountain-View/108-Beacon-St-94040/home/2121383,,,,N,Y,37.405462,-122.106696,
Past Sale,Single Family Residential,1115 Rose Ave,Mountain View,CA,94040,,3,2,94040,1930,,1948,,,,,,,,,,2014-07-24,2005000,http://www.redfin.com/CA/Mountain-View/1115-Rose-Ave-94040/home/1670337,,,,N,Y,37.370659,-122.089453,
Past Sale,Single Family Residential,1438 Nilda Ave,Mountain View,CA,94040,,4,3,94040,1608,,1955,,,,,,,,,,2012-06-29,1200000,http://www.redfin.com/CA/Mountain-View/1438-Nilda-Ave-94040/home/648245,,,,N,Y,37.37666,-122.079699,
Past Sale,Single Family Residential,1560 Layla Ct,Mountain View,CA,94041,,4,2.5,94041,1769,,2001,,,,,,,,,,2014-12-11,1600000,http://www.redfin.com/CA/Mountain-View/1560-Layla-Ct-94041/home/1206470,,,,N,Y,37.395308,-122.088479,
Past Sale,Single Family Residential,128 Fair Oaks Ave,Mountain View,CA,94040,,3,3,94040,1263,,2009,,,,,,,,,,2015-01-13,1240000,http://www.redfin.com/CA/Mountain-View/128-Fair-Oaks-Ave-94040/home/17290832,,,,N,Y,37.402613,-122.099199,
Past Sale,Single Family Residential,1108 SUSSEX Sq,Mountain View,CA,94040,1498000,3,2.5,Bentley Square,2030,5300,1978,2,Garage,,Sold,,,,,1498000,2014-12-10,1750000,http://www.redfin.com/CA/Mountain-View/1108-Sussex-Sq-94040/home/1023685,MLSListings Inc. (MLSLI),ML81441463,Intero Real Estate Services,N,Y,37.378101,-122.07295,false
Past Sale,Single Family Residential,2431 Alvin St,Mountain View,CA,94043,,3,2,94043,1116,,1954,,,,,,,,,,2015-01-09,1388000,http://www.redfin.com/CA/Mountain-View/2431-Alvin-St-94043/home/1354177,,,,N,Y,37.410582,-122.098579,
Past Sale,Single Family Residential,316 Wildflower Park Ln,MOUNTAIN VIEW,CA,94043,1648000,4,3,MOUNTAIN VIEW,2264,4356,1988,2,Garage,,Sold,,,,,1648000,2014-12-17,1860000,http://www.redfin.com/CA/Mountain-View/316-Wildflower-Park-Ln-94043/home/615207,MLSListings Inc. (MLSLI),ML81444597,Sereno Group,N,Y,37.398752,-122.077079,false
Past Sale,Single Family Residential,114 Bentley Sq,Mountain View,CA,94040,,3,2,94040,1888,,1978,,,,,,,,,,2015-02-13,1680000,http://www.redfin.com/CA/Mountain-View/114-Bentley-Sq-94040/home/649286,,,,N,Y,37.377349,-122.074085,
Past Sale,Single Family Residential,764 San Lucas Ave,MOUNTAIN VIEW,CA,94043,1100000,4,2,MOUNTAIN VIEW,1389,6185,1962,2,Garage,,Sold,,,,,1100000,2015-01-29,1400000,http://www.redfin.com/CA/Mountain-View/764-San-Lucas-Ave-94043/home/1222867,MLSListings Inc. (MLSLI),ML81447450,Alain Pinel Realtors,N,Y,37.404344,-122.071787,false
Past Sale,Single Family Residential,1407 Gretel Ln,MOUNTAIN VIEW,CA,94040,1398000,3,2,MOUNTAIN VIEW,1248,6795,1954,2,Garage,,Sold,,,,,1398000,2015-02-11,1710000,http://www.redfin.com/CA/Mountain-View/1407-Gretel-Ln-94040/home/648219,MLSListings Inc. (MLSLI),ML81449098,Alain Pinel Realtors,N,Y,37.377021,-122.078413,false
Past Sale,Single Family Residential,513 Burgoyne St,MOUNTAIN VIEW,CA,94043,849000,3,1,MOUNTAIN VIEW,877,5009,1950,2,Garage,,Sold,,,,,849000,2015-02-10,960000,http://www.redfin.com/CA/Mountain-View/513-Burgoyne-St-94043/home/1541362,MLSListings Inc. (MLSLI),ML81449253,Sereno Group,N,Y,37.403282,-122.086409,false
Past Sale,Single Family Residential,847 Harpster Dr,Mountain View,CA,94040,,3,2,94040,1197,,1950,,,,,,,,,,2015-02-12,1525000,http://www.redfin.com/CA/Mountain-View/847-Harpster-Dr-94040/home/1187477,,,,N,Y,37.383699,-122.086215,
Past Sale,Single Family Residential,1107 Ana Privada,MOUNTAIN VIEW,CA,94040,1428000,3,3,MOUNTAIN VIEW,2022,3920,1985,2,Garage,,Sold,,,,,1428000,2015-02-04,1550000,http://www.redfin.com/CA/Mountain-View/1107-Ana-Privada-94040/home/1561733,MLSListings Inc. (MLSLI),ML81448521,Intero Real Estate Services,N,Y,37.372211,-122.060959,false
Past Sale,Single Family Residential,767 Burgoyne St,Mountain View,CA,94043,1499000,4,3,Santa Clara,,5227,2006,1,Garage,,Sold,,,,,1499000,2015-02-06,1660000,http://www.redfin.com/CA/Mountain-View/767-Burgoyne-St-94043/home/612857,East Bay Regional Data (EBRD),40683629,Intero Real Estate Services,N,Y,37.405039,-122.085923,false
Past Sale,Single Family Residential,2365 Craig Ct,MOUNTAIN VIEW,CA,94043,1099000,3,2,MOUNTAIN VIEW,1272,11717,1955,1,Garage,,Sold,,,,,1099000,2015-01-17,1300000,http://www.redfin.com/CA/Mountain-View/2365-Craig-Ct-94043/home/1072503,MLSListings Inc. (MLSLI),ML81446707,Sereno Group,N,Y,37.40767,-122.097777,false
Past Sale,Single Family Residential,2461 Thaddeus Dr,Mountain View,CA,94043,,3,2,94043,1185,,1954,,,,,,,,,,2015-03-18,1525000,http://www.redfin.com/CA/Mountain-View/2461-Thaddeus-Dr-94043/home/1866998,,,,N,Y,37.411716,-122.098702,
Past Sale,Single Family Residential,350 Fay Way,Mountain View,CA,94043,,3,2,94043,1104,,1955,,,,,,,,,,2015-03-16,1450000,http://www.redfin.com/CA/Mountain-View/350-Fay-Way-94043/home/684218,,,,N,Y,37.408098,-122.095793,
Past Sale,Single Family Residential,2625 La Salle Dr,Mountain View,CA,94040,,4,2.5,94040,2128,,1966,,,,,,,,,,2014-12-17,1900000,http://www.redfin.com/CA/Mountain-View/2625-La-Salle-Dr-94040/home/649146,,,,N,Y,37.367481,-122.076265,
Past Sale,Single Family Residential,134 Avellino Way (Unable to map),Mountain View,CA,94043,,4,3.5,94043,2017,,,,,,,,,,,,2014-12-12,1595000,http://www.redfin.com/CA/Mountain-View/134-Avellino-Way-94043/home/62324434,,,,N,Y,37.3902,-122.0566,
Past Sale,Single Family Residential,922 Farley St,Mountain View,CA,94043,,3,1,94043,1192,,1951,,,,,,,,,,2015-03-05,1250000,http://www.redfin.com/CA/Mountain-View/922-Farley-St-94043/home/612425,,,,N,Y,37.407068,-122.0883,
Past Sale,Single Family Residential,1231 Arbor Ct,Mountain View,CA,94040,,4,3,94040,2113,,1963,,,,,,,,,,2015-03-18,1615000,http://www.redfin.com/CA/Mountain-View/1231-Arbor-Ct-94040/home/1855331,,,,N,Y,37.366605,-122.065968,
Past Sale,Single Family Residential,733 Ehrhorn Ave,Mountain View,CA,94041,,3,1,94041,1510,,1953,,,,,,,,,,2015-04-01,1559000,http://www.redfin.com/CA/Mountain-View/733-Ehrhorn-Ave-94041/home/1150601,,,,N,Y,37.383822,-122.077744,
Past Sale,Single Family Residential,561 Palo Alto Ave,Mountain View,CA,94041,,3,2,94041,1708,,1936,,,,,,,,,,2015-04-01,1500000,http://www.redfin.com/CA/Mountain-View/561-Palo-Alto-Ave-94041/home/617628,,,,N,Y,37.391802,-122.088133,
Past Sale,Single Family Residential,1660 Yale Dr,Mountain View,CA,94040,,3,2,94040,1240,,1954,,,,,,,,,,2015-04-01,1750000,http://www.redfin.com/CA/Mountain-View/1660-Yale-Dr-94040/home/1187406,,,,N,Y,37.375129,-122.093683,
Past Sale,Single Family Residential,1133 Miramonte Ave,Mountain View,CA,94040,,3,1,94040,1049,,1950,,,,,,,,,,2015-04-02,1350000,http://www.redfin.com/CA/Mountain-View/1133-Miramonte-Ave-94040/home/644182,,,,N,Y,37.384004,-122.086829,
Past Sale,Single Family Residential,779 Sunshine Dr,LOS ALTOS,CA,94024,3198000,4,4.5,LOS ALTOS,3311,19500,1950,3,Garage,,Sold,,,,,3198000,2015-03-04,3865000,http://www.redfin.com/CA/Los-Altos/779-Sunshine-Dr-94024/home/1628150,MLSListings Inc. (MLSLI),ML81452275,Coldwell Banker Los Altos,N,Y,37.37698,-122.094021,false
Past Sale,Single Family Residential,1902 Adams Ct,MOUNTAIN VIEW,CA,94040,2198000,4,3,MOUNTAIN VIEW,2139,8100,1963,2,Garage,,Sold,,,,,2198000,2015-02-25,2400000,http://www.redfin.com/CA/Mountain-View/1902-Adams-Ct-94040/home/1642537,MLSListings Inc. (MLSLI),ML81451389,Intero Real Estate Services,N,Y,37.368091,-122.088234,false
Past Sale,Single Family Residential,1793 Woodhaven Pl,Mountain View,CA,94041,,4,2.5,94041,2183,,1999,,,,,,,,,,2015-03-26,1813000,http://www.redfin.com/CA/Mountain-View/1793-Woodhaven-Pl-94041/home/616838,,,,N,Y,37.39275,-122.094447,
Past Sale,Single Family Residential,101 Chetwood Dr,Mountain View,CA,94043,,4,2.5,94043,1839,,1997,,,,,,,,,,2015-01-15,1350000,http://www.redfin.com/CA/Mountain-View/101-Chetwood-Dr-94043/home/626830,,,,N,Y,37.389373,-122.061278,
Past Sale,Single Family Residential,418 Foxborough Dr,Mountain View,CA,94041,,4,2,94041,2588,,1976,,,,,,,,,,2015-03-26,1800000,http://www.redfin.com/CA/Mountain-View/418-Foxborough-Dr-94041/home/625627,,,,N,Y,37.384063,-122.064073,
Past Sale,Single Family Residential,184 Evandale Ave,MOUNTAIN VIEW,CA,94043,988000,3,3.5,MOUNTAIN VIEW,1612,2178,2007,2,Garage,,Sold,,,,,988000,2015-03-24,1260000,http://www.redfin.com/CA/Mountain-View/184-Evandale-Ave-94043/home/17292273,MLSListings Inc. (MLSLI),ML81454588,LCI Properties,N,Y,37.404921,-122.059383,false
Past Sale,Single Family Residential,1274 Cuernavaca Circulo,MOUNTAIN VIEW,CA,94040,1428000,3,3,MOUNTAIN VIEW,2022,3920,1985,2,Garage,,Sold,,,,,1428000,2015-03-10,1481000,http://www.redfin.com/CA/Mountain-View/1274-Cuernavaca-Circulo-94040/home/1355102,MLSListings Inc. (MLSLI),ML81452384,Alain Pinel Realtors,N,Y,37.371406,-122.061986,false
Past Sale,Single Family Residential,813 Emily Dr,Mountain View,CA,94043,,3,1,94043,871,,1954,,,,,,,,,,2015-03-30,1000000,http://www.redfin.com/CA/Mountain-View/813-Emily-Dr-94043/home/621469,,,,N,Y,37.404872,-122.065187,
Past Sale,Single Family Residential,228 Shumway Ln (Unable to map),Mountain View,CA,94041,,3,2.5,94041,1526,,2014,,,,,,,,,,2014-12-22,1650500,http://www.redfin.com/CA/Mountain-View/228-Shumway-Ln-94041/home/57023044,,,,N,Y,37.3904,-122.0726,
Past Sale,Single Family Residential,595 Mccarty Ave,Mountain View,CA,94041,,3,3,94041,1421,,1955,,,,,,,,,,2014-12-09,1270000,http://www.redfin.com/CA/Mountain-View/595-Mccarty-Ave-94041/home/940877,,,,N,Y,37.384627,-122.070017,
Past Sale,Single Family Residential,13384 Pastel Ln,MOUNTAIN VIEW,CA,94040,1548000,4,2,MOUNTAIN VIEW,1631,11524,1956,2,Garage,,Sold,,,,,1548000,2015-03-12,1780000,http://www.redfin.com/CA/Mountain-View/13384-Pastel-Ln-94040/home/1210250,MLSListings Inc. (MLSLI),ML81453553,Intero Real Estate Services,N,Y,37.372292,-122.068698,false
Past Sale,Single Family Residential,341 Mercy St,MOUNTAIN VIEW,CA,94041,1599999,3,2,MOUNTAIN VIEW,1525,5060,1947,1,Garage,,Sold,,,,,1599999,2015-03-19,1851000,http://www.redfin.com/CA/Mountain-View/341-Mercy-St-94041/home/619652,MLSListings Inc. (MLSLI),ML81454616,Intero Real Estate Services-Almaden,N,Y,37.388227,-122.075818,false
Past Sale,Single Family Residential,2341 Hilo Ct,Mountain View,CA,94040,,3,2.5,94040,2333,,1976,,,,,,,,,,2015-03-27,1565000,http://www.redfin.com/CA/Mountain-View/2341-Hilo-Ct-94040/home/980093,,,,N,Y,37.370408,-122.073252,
Past Sale,Single Family Residential,157 Gary Ct,Mountain View,CA,94041,,4,2,94041,1583,,1952,,,,,,,,,,2015-01-07,1425000,http://www.redfin.com/CA/Mountain-View/157-Gary-Ct-94041/home/1397075,,,,N,Y,37.385728,-122.074154,
Past Sale,Single Family Residential,641 Hollingsworth Dr,Los Altos,CA,94022,,4,3.5,94022,4122,,1949,,,,,,,,,,2014-04-29,525000,http://www.redfin.com/CA/Los-Altos/641-Hollingsworth-Dr-94022/home/1164582,,,,N,Y,37.388467,-122.098365,
Past Sale,Single Family Residential,205 Post St,Mountain View,CA,94040,,3,2,94040,1888,,1978,,,,,,,,,,2012-05-31,960000,http://www.redfin.com/CA/Mountain-View/205-Post-St-94040/home/650393,,,,N,Y,37.378214,-122.072003,
Past Sale,Single Family Residential,1827 Van Buren Cir,Mountain View,CA,94040,,3,3,94040,2433,,1965,,,,,,,,,,2012-06-05,1600000,http://www.redfin.com/CA/Mountain-View/1827-Van-Buren-Cir-94040/home/642471,,,,N,Y,37.368813,-122.088331,
Past Sale,Single Family Residential,2707 Preston Dr,Mountain View,CA,94040,,4,2,94040,2126,,1971,,,,,,,,,,2015-04-09,2230000,http://www.redfin.com/CA/Mountain-View/2707-Preston-Dr-94040/home/913643,,,,N,Y,37.365405,-122.072702,
Past Sale,Single Family Residential,332 Jessie Ln,MOUNTAIN VIEW,CA,94041,1800000,3,2,MOUNTAIN VIEW,1641,6660,1953,2,Garage,,Sold,,,,,1800000,2015-04-01,2000000,http://www.redfin.com/CA/Mountain-View/332-Jessie-Ln-94041/home/619537,MLSListings Inc. (MLSLI),ML81457079,Realty World Knight Properties,N,Y,37.386558,-122.076574,false
Past Sale,Single Family Residential,1208 Awalt Dr,Mountain View,CA,94040,,3,2,94040,1964,,1965,,,,,,,,,,2015-04-14,2350000,http://www.redfin.com/CA/Mountain-View/1208-Awalt-Dr-94040/home/1711144,,,,N,Y,37.363427,-122.068443,
Past Sale,Single Family Residential,1311 Belshaw Dr,MOUNTAIN VIEW,CA,94040,1799000,4,2.5,MOUNTAIN VIEW,2126,7950,1971,2,Garage,,Sold,,,,2015-04-13,1975000,2015-04-15,1733500,http://www.redfin.com/CA/Mountain-View/1311-Belshaw-Dr-94040/home/1079442,MLSListings Inc. (MLSLI),ML81452536,KW Bay Area Estates,N,Y,37.364656,-122.063971,false
Past Sale,Single Family Residential,970 San Pierre Way,Mountain View,CA,94043,1300000,4,2,Mountain View,1576,7128,1964,2,Garage,,Sold,,,,,1300000,2015-05-15,1305000,http://www.redfin.com/CA/Mountain-View/970-San-Pierre-Way-94043/home/1007860,San Francisco Association of Realtors (SFARMLS),431221,JODI Group,N,Y,37.406731,-122.082196,false
Past Sale,Single Family Residential,2425 Laura Ln,Mountain View,CA,94043,,3,2,94043,1008,,1955,,,,,,,,,,2015-04-13,950000,http://www.redfin.com/CA/Mountain-View/2425-Laura-Ln-94043/home/1354189,,,,N,Y,37.407767,-122.100102,
Past Sale,Multi-Family (2-4 Unit),257 Mountain View Ave,Mountain View,CA,94041,,,,94041,1400,,1920,,,,,,,,,,2015-04-10,1875000,http://www.redfin.com/CA/Mountain-View/257-Mountain-View-Ave-94041/home/1459019,,,,N,Y,37.39513,-122.084678,
Past Sale,Single Family Residential,1857 Villa St,MOUNTAIN VIEW,CA,94041,1195000,3,2,MOUNTAIN VIEW,987,8371,1951,2,Garage,,Sold,,,,,1195000,2015-04-15,1500000,http://www.redfin.com/CA/Mountain-View/1857-Villa-St-94041/home/1827020,MLSListings Inc. (MLSLI),ML81454970,Sereno Group,N,Y,37.398662,-122.091808,false
Past Sale,Single Family Residential,853 Sladky Ave,MOUNTAIN VIEW,CA,94040,1599000,3,2,MOUNTAIN VIEW,1280,6098,1954,2,Garage,,Sold,,,,,1599000,2015-04-22,2050000,http://www.redfin.com/CA/Mountain-View/853-Sladky-Ave-94040/home/1246763,MLSListings Inc. (MLSLI),ML81460258,Sereno Group,N,Y,37.373874,-122.089215,false
Past Sale,Single Family Residential,1709 Peartree Ln,MOUNTAIN VIEW,CA,94040,1798000,3,3,MOUNTAIN VIEW,1928,6970,1954,1,Garage,,Sold,,,,,1798000,2015-04-16,1798000,http://www.redfin.com/CA/Mountain-View/1709-Peartree-Ln-94040/home/1654063,MLSListings Inc. (MLSLI),ML81459036,Intero Real Estate Services,N,Y,37.373109,-122.089528,false
Past Sale,Single Family Residential,1909 Fordham Way,MOUNTAIN VIEW,CA,94040,2185000,3,2.5,MOUNTAIN VIEW,2112,8000,1963,2,Garage,,Sold,,,,,2185000,2015-04-16,2700000,http://www.redfin.com/CA/Mountain-View/1909-Fordham-Way-94040/home/1240222,MLSListings Inc. (MLSLI),ML81459025,Intero Real Estate Services,N,Y,37.367713,-122.092142,false
Past Sale,Single Family Residential,284 Monroe Dr,MOUNTAIN VIEW,CA,94040,1849000,3,2.5,MOUNTAIN VIEW,1844,4792,2007,2,Garage,,Sold,,,,,1849000,2015-04-22,2110000,http://www.redfin.com/CA/Mountain-View/284-Monroe-Dr-94040/home/12179516,MLSListings Inc. (MLSLI),ML81460203,Keller Williams Palo Alto,N,Y,37.410856,-122.115898,false
Past Sale,Single Family Residential,125 CONCORD Cir,Mountain View,CA,94040,898000,3,2.5,Mountain View,1290,1742,1994,1,Garage,,Sold,,,,,898000,2013-03-08,1167000,http://www.redfin.com/CA/Mountain-View/125-Concord-Cir-94040/home/2121357,MLSListings Inc. (MLSLI),ML81306089,RE/MAX Real Estate Services,N,Y,37.404157,-122.105538,false
Past Sale,Single Family Residential,2509 Nedson Ct,Mountain View,CA,94043,,3,2,94043,1536,,1954,,,,,,,,,,2013-07-03,854000,http://www.redfin.com/CA/Mountain-View/2509-Nedson-Ct-94043/home/606934,,,,N,Y,37.413222,-122.099702,
Past Sale,Single Family Residential,831 Warner Ct,MOUNTAIN VIEW,CA,94043,1588000,4,3,MOUNTAIN VIEW,2329,3548,2008,2,Garage,,Sold,,,,,1588000,2015-04-06,1600000,http://www.redfin.com/CA/Mountain-View/831-Warner-Ct-94043/home/12179508,MLSListings Inc. (MLSLI),ML81456943,Intero Real Estate Services,N,Y,37.416145,-122.096068,false
Past Sale,Single Family Residential,77 CHURCH St,Mountain View,CA,94041,1050000,3,1.5,Mountain View,1117,14874,1955,2,Garage,,Sold,,,,,1050000,2013-09-17,1050000,http://www.redfin.com/CA/Mountain-View/77-Church-St-94041/home/547405,MLSListings Inc. (MLSLI),ML81330320,Century 21 Realty Alliance,N,Y,37.384157,-122.07435,false
Past Sale,Single Family Residential,173 Granada Dr,Mountain View,CA,94043,,3,2,94043,1394,,1984,,,,,,,,,,2015-04-17,1300000,http://www.redfin.com/CA/Mountain-View/173-Granada-Dr-94043/home/614019,,,,N,Y,37.399358,-122.085649,
Past Sale,Single Family Residential,13091 Lorene Ct,Mountain View,CA,94040,,3,2,94040,1442,,1955,,,,,,,,,,2015-04-21,2402000,http://www.redfin.com/CA/Mountain-View/13091-Lorene-Ct-94040/home/1696979,,,,N,Y,37.368249,-122.069609,
Past Sale,Single Family Residential,1298 Cuernavaca Circulo,Mountain View,CA,94040,,3,2,94040,1535,,1986,,,,,,,,,,2015-04-21,1250000,http://www.redfin.com/CA/Mountain-View/1298-Cuernavaca-Circulo-94040/home/894626,,,,N,Y,37.371341,-122.060996,
Past Sale,Single Family Residential,651 Mccarty Ave,Mountain View,CA,94041,,4,2,94041,1761,,1955,,,,,,,,,,2013-11-22,1095000,http://www.redfin.com/CA/Mountain-View/651-Mccarty-Ave-94041/home/1683697,,,,N,Y,37.384348,-122.070219,
Past Sale,Single Family Residential,1773 Vassar Ave,Mountain View,CA,94043,,3,1,94043,1202,,1950,,,,,,,,,,2014-06-11,960500,http://www.redfin.com/CA/Mountain-View/1773-Vassar-Ave-94043/home/593207,,,,N,Y,37.402472,-122.087599,
Past Sale,Single Family Residential,1748 Walnut Dr,Mountain View,CA,94040,,3,2,94040,1280,,1955,,,,,,,,,,2015-04-21,1200000,http://www.redfin.com/CA/Mountain-View/1748-Walnut-Dr-94040/home/1467269,,,,N,Y,37.372057,-122.092661,
Past Sale,Single Family Residential,240 Pine Way (Unable to map),Mountain View,CA,94041,,3,3.5,94041,1764,,2012,,,,,,,,,,2015-04-22,1850000,http://www.redfin.com/CA/Mountain-View/240-Pine-Way-94041/home/52671757,,,,N,Y,37.3918,-122.0761,
Past Sale,Single Family Residential,65 Paul Ave,Mountain View,CA,94041,,3,2,94041,1419,,1955,,,,,,,,,,2013-12-12,1040000,http://www.redfin.com/CA/Mountain-View/65-Paul-Ave-94041/home/1431752,,,,N,Y,37.384678,-122.07108,
Past Sale,Single Family Residential,604 Mariposa Ave,Mountain View,CA,94041,,3,2,94041,1413,,1947,,,,,,,,,,2015-04-16,1800000,http://www.redfin.com/CA/Mountain-View/604-Mariposa-Ave-94041/home/616570,,,,N,Y,37.392267,-122.091427,
Past Sale,Multi-Family (2-4 Unit),137 Easy St,Mountain View,CA,94043,,,,94043,1288,,1947,,,,,,,,,,2015-04-24,1835000,http://www.redfin.com/CA/Mountain-View/137-Easy-St-94043/home/625338,,,,N,Y,37.393584,-122.067281,
Past Sale,Single Family Residential,536 Calderon Ave,Mountain View,CA,94041,,3,1,94041,1228,,1947,,,,,,,,,,2015-04-27,1430000,http://www.redfin.com/CA/Mountain-View/536-Calderon-Ave-94041/home/1785175,,,,N,Y,37.386915,-122.074841,
Past Sale,Single Family Residential,2747 Saint Giles Ln,Mountain View,CA,94040,,4,3,94040,2008,,1964,,,,,,,,,,2015-04-24,2280000,http://www.redfin.com/CA/Mountain-View/2747-Saint-Giles-Ln-94040/home/993016,,,,N,Y,37.363875,-122.071617,
Past Sale,Single Family Residential,875 Washington St,Mountain View,CA,94043,,3,1,94043,1240,,1900,,,,,,,,,,2015-04-28,1420000,http://www.redfin.com/CA/Mountain-View/875-Washington-St-94043/home/1397248,,,,N,Y,37.396841,-122.079463,
Past Sale,Single Family Residential,1045 morton Ct,MOUNTAIN VIEW,CA,94040,1695000,3,2,MOUNTAIN VIEW,1801,5227,1954,2,Garage,,Sold,,,,,1695000,2015-04-21,2277000,http://www.redfin.com/CA/Mountain-View/1045-Morton-Ct-94040/home/1562090,MLSListings Inc. (MLSLI),ML81458803,Alain Pinel Realtors,N,Y,37.391378,-122.100677,false
Past Sale,Single Family Residential,1863 Appletree Ln,MOUNTAIN VIEW,CA,94040,1998000,4,2,MOUNTAIN VIEW,1875,8610,1959,2,Garage,,Sold,,,,,1998000,2015-04-22,2628000,http://www.redfin.com/CA/Mountain-View/1863-Appletree-Ln-94040/home/742982,MLSListings Inc. (MLSLI),ML81459784,Alain Pinel Realtors,N,Y,37.369255,-122.093056,false
Past Sale,Single Family Residential,1591 Spring St,MOUNTAIN VIEW,CA,94043,998000,4,3,MOUNTAIN VIEW,1752,5300,1956,2,Garage,,Sold,,,,,998000,2015-04-16,1300000,http://www.redfin.com/CA/Mountain-View/1591-Spring-St-94043/home/1747617,MLSListings Inc. (MLSLI),ML81459055,Intero Real Estate Services,N,Y,37.412509,-122.081892,false
Past Sale,Single Family Residential,590 Penny Ln,MOUNTAIN VIEW,CA,94043,1099950,3,2.5,MOUNTAIN VIEW,1196,3255,2002,1,Garage,,Sold,,,,2015-04-16,1188888,2015-04-21,1132000,http://www.redfin.com/CA/Mountain-View/590-Penny-Ln-94043/home/613086,MLSListings Inc. (MLSLI),ML81457749,Coldwell Banker,N,Y,37.410398,-122.089947,false
Past Sale,Single Family Residential,1168 Barbara Ave,MOUNTAIN VIEW,CA,94040,2198000,4,3,MOUNTAIN VIEW,2377,8470,1954,2,Garage,,Sold,,,,,2198000,2015-05-07,2760000,http://www.redfin.com/CA/Mountain-View/1168-Barbara-Ave-94040/home/1009738,MLSListings Inc. (MLSLI),ML81462684,Intero Real Estate Services,N,Y,37.377395,-122.091698,false
Past Sale,Single Family Residential,1008 Bryant Ave,MOUNTAIN VIEW,CA,94040,1749000,4,2,MOUNTAIN VIEW,1773,7920,1960,2,Garage,,Sold,,,,,1749000,2015-04-24,1860000,http://www.redfin.com/CA/Mountain-View/1008-Bryant-Ave-94040/home/941639,MLSListings Inc. (MLSLI),ML81460176,Kelly Real Estate Services,N,Y,37.361549,-122.068283,false
Past Sale,Single Family Residential,439 Nicholas Dr,MOUNTAIN VIEW,CA,94043,1399000,3,3,MOUNTAIN VIEW,1786,2346,1998,2,Garage,,Sold,,,,,1399000,2015-04-22,1580000,http://www.redfin.com/CA/Mountain-View/439-Nicholas-Dr-94043/home/1179209,MLSListings Inc. (MLSLI),ML81460206,Intero Real Estate Services,N,Y,37.388602,-122.058827,false
Past Sale,Single Family Residential,62 Eldora Dr,Mountain View,CA,94041,,3,2,94041,1340,,1953,,,,,,,,,,2014-03-11,1160000,http://www.redfin.com/CA/Mountain-View/62-Eldora-Dr-94041/home/1750768,,,,N,Y,37.385795,-122.070794,
Past Sale,Single Family Residential,570 Aleynna Pl,Mountain View,CA,94040,,3,3.5,94040,2920,,2008,,,,,,,,,,2013-08-29,473000,http://www.redfin.com/CA/Mountain-View/570-Aleynna-Pl-94040/home/23044843,,,,N,Y,37.380693,-122.081461,
Past Sale,Single Family Residential,469 Pettis Ave,Mountain View,CA,94041,,3,2,94041,1705,,1946,,,,,,,,,,2013-10-17,1325000,http://www.redfin.com/CA/Mountain-View/469-Pettis-Ave-94041/home/934309,,,,N,Y,37.393361,-122.088536,
Past Sale,Single Family Residential,552 Leona Ln,Mountain View,CA,94040,,4,2,94040,1609,,1956,,,,,,,,,,2013-07-16,1575000,http://www.redfin.com/CA/Mountain-View/552-Leona-Ln-94040/home/646690,,,,N,Y,37.376562,-122.081493,
Past Sale,Single Family Residential,1265 Cuernavaca Circulo,Mountain View,CA,94040,,3,2.5,94040,2261,,1986,,,,,,,,,,2013-03-15,1050000,http://www.redfin.com/CA/Mountain-View/1265-Cuernavaca-Circulo-94040/home/993036,,,,N,Y,37.370979,-122.062006,
Past Sale,Single Family Residential,556 Farley St,Mountain View,CA,94043,,3,1,94043,1364,,1950,,,,,,,,,,2013-12-31,400000,http://www.redfin.com/CA/Mountain-View/556-Farley-St-94043/home/1709993,,,,N,Y,37.404453,-122.089375,
Past Sale,Single Family Residential,1425 Gretel Ln,Mountain View,CA,94040,,4,2,94040,1676,,1954,,,,,,,,,,2013-06-07,1440000,http://www.redfin.com/CA/Mountain-View/1425-Gretel-Ln-94040/home/1711160,,,,N,Y,37.376821,-122.078416,
Past Sale,Single Family Residential,1250 Gretel Ln,Mountain View,CA,94040,,3,2,94040,1845,,1954,,,,,,,,,,2013-09-11,1000000,http://www.redfin.com/CA/Mountain-View/1250-Gretel-Ln-94040/home/1321559,,,,N,Y,37.378625,-122.078908,
Past Sale,Single Family Residential,43 Starr Way,Mountain View,CA,94040,,3,1,94040,1194,,1951,,,,,,,,,,2012-12-27,284000,http://www.redfin.com/CA/Mountain-View/43-Starr-Way-94040/home/640691,,,,N,Y,37.379006,-122.087856,
Past Sale,Single Family Residential,1101 Karen Way,Mountain View,CA,94040,,3,1,94040,974,,1952,,,,,,,,,,2012-11-16,378000,http://www.redfin.com/CA/Mountain-View/1101-Karen-Way-94040/home/1164568,,,,N,Y,37.391189,-122.103189,
Past Sale,Single Family Residential,457 Whisman Park Dr,Mountain View,CA,94043,,4,2.5,94043,1925,,1998,,,,,,,,,,2012-09-28,275000,http://www.redfin.com/CA/Mountain-View/457-Whisman-Park-Dr-94043/home/1691193,,,,N,Y,37.388499,-122.05799,
Past Sale,Single Family Residential,403 Hedgerow Ct,Mountain View,CA,94041,,3,2,94041,1968,,1976,,,,,,,,,,2012-10-19,1100000,http://www.redfin.com/CA/Mountain-View/403-Hedgerow-Ct-94041/home/1710579,,,,N,Y,37.383701,-122.062155,
Past Sale,Single Family Residential,502 View St,Mountain View,CA,94041,,3,2,94041,1702,,1905,,,,,,,,,,2012-06-13,1252000,http://www.redfin.com/CA/Mountain-View/502-View-St-94041/home/1641874,,,,N,Y,37.389136,-122.079375,
Past Sale,Single Family Residential,466 View St,Mountain View,CA,94041,,4,2,94041,1918,,1916,,,,,,,,,,2013-08-06,1100000,http://www.redfin.com/CA/Mountain-View/466-View-St-94041/home/619137,,,,N,Y,37.389799,-122.079059,
Past Sale,Single Family Residential,107 Savannah Loop (Unable to map),Mountain View,CA,94040,1608000,4,3.5,Apricot Commons,2275,1457,,2,Garage,,Sold,,,,,1608000,2014-09-19,1692251,http://www.redfin.com/CA/Mountain-View/107-Savannah-Loop-94043/home/58425351,MLSListings Inc. (MLSLI),ML81434217,Charles R. Baldwin~ Broker,N,Y,,,false
Past Sale,Single Family Residential,534 Drucilla Dr,Mountain View,CA,94040,,4,2,94040,1953,,1956,,,,,,,,,,2014-05-14,2055000,http://www.redfin.com/CA/Mountain-View/534-Drucilla-Dr-94040/home/913613,,,,N,Y,37.375069,-122.081428,
Past Sale,Single Family Residential,697 Pettis Ave,Mountain View,CA,94041,,3,2,94041,1284,,1923,,,,,,,,,,2012-08-31,1075000,http://www.redfin.com/CA/Mountain-View/697-Pettis-Ave-94041/home/616517,,,,N,Y,37.390609,-122.090239,
Past Sale,Single Family Residential,768 Hans Ave,Mountain View,CA,94040,,4,3,94040,1620,,1955,,,,,,,,,,2012-12-13,1350000,http://www.redfin.com/CA/Mountain-View/768-Hans-Ave-94040/home/646513,,,,N,Y,37.379365,-122.08608,
Past Sale,Single Family Residential,2134 JARDIN Dr,Mountain View,CA,94040,1178000,4,2,Mountain View,1510,5670,1952,1,Garage,,Sold,,,,,1178000,2013-04-04,1305800,http://www.redfin.com/CA/Mountain-View/2134-Jardin-Dr-94040/home/634073,MLSListings Inc. (MLSLI),ML81309709,Sereno Group,N,Y,37.388839,-122.104637,false
Past Sale,Single Family Residential,2135 Junction Ave,Mountain View,CA,94043,,3,2,94043,1682,,1948,,,,,,,,,,2012-08-21,865000,http://www.redfin.com/CA/Mountain-View/2135-Junction-Ave-94043/home/1320617,,,,N,Y,37.410186,-122.093912,
Past Sale,Single Family Residential,778 Sonia Way,Mountain View,CA,94040,,3,2,94040,1261,,2012,,,,,,,,,,2014-12-02,1350000,http://www.redfin.com/CA/Mountain-View/778-Sonia-Way-94040/home/52673181,,,,N,Y,37.383995,-122.084534,
Past Sale,Single Family Residential,320 MANSFIELD Dr,Mountain View,CA,94040,3295000,4,2.5,COMPLETELY CUSTOM ONE STORY CONSTRUCTION!,3100,8364,2011,2,Garage,,Sold,,,,,3295000,2014-12-08,3015000,http://www.redfin.com/CA/Mountain-View/320-Mansfield-Dr-94040/home/41395789,MLSListings Inc. (MLSLI),ML81438268,Intero San Jose~ Willow Glen Lincoln Ave,N,Y,37.364819,-122.075864,false
Past Sale,Single Family Residential,743 WAKE FOREST Dr,Mountain View,CA,94043,924500,3,2,Mountain View,1296,5280,1954,1,Garage,,Sold,,,,,924500,2014-08-22,1200000,http://www.redfin.com/CA/Mountain-View/743-Wake-Forest-Dr-94043/home/547457,MLSListings Inc. (MLSLI),ML81429643,Coldwell Banker-San Carlos,N,Y,37.403244,-122.065294,false
Past Sale,Single Family Residential,2708 WASATCH Dr,Mountain View,CA,94040,1598000,4,2,Mountain View,1576,7950,1963,2,Garage,,Sold,,,,,1598000,2014-08-29,1665000,http://www.redfin.com/CA/Mountain-View/2708-Wasatch-Dr-94040/home/1562351,MLSListings Inc. (MLSLI),ML81430440,Intero Real Estate Services,N,Y,37.365226,-122.066619,false
Past Sale,Single Family Residential,560 Moorpark Way,Mountain View,CA,94041,,4,3,94041,1949,,1945,,,,,,,,,,2014-11-07,1297000,http://www.redfin.com/CA/Mountain-View/560-Moorpark-Way-94041/home/1466573,,,,N,Y,37.383857,-122.06595,
Past Sale,Single Family Residential,741 EMILY Dr,Mountain View,CA,94043,725000,3,1,Mountain View,816,5000,1954,1,Garage,,Sold,,,,,725000,2014-10-20,825000,http://www.redfin.com/CA/Mountain-View/741-Emily-Dr-94043/home/1512640,MLSListings Inc. (MLSLI),ML81437516,RezRealty,N,Y,37.403972,-122.066417,false
Past Sale,Single Family Residential,399 HEDGEROW Ct,Mountain View,CA,94041,1525000,4,2,Mountain View,2278,10692,1976,2,Garage,,Sold,,,,,1525000,2014-08-29,1775000,http://www.redfin.com/CA/Mountain-View/399-Hedgerow-Ct-94041/home/1339727,MLSListings Inc. (MLSLI),ML81430488,Coldwell Banker-PA Downtown,N,Y,37.3838,-122.062713,false
Past Sale,Single Family Residential,799 Glenborough Dr,Mountain View,CA,94041,,4,2.5,94041,2502,,1985,,,,,,,,,,2014-09-25,2100000,http://www.redfin.com/CA/Mountain-View/799-Glenborough-Dr-94041/home/625641,,,,N,Y,37.382681,-122.062077,
Past Sale,Single Family Residential,802 Devoto St,Mountain View,CA,94041,,3,2.5,94041,2048,,1986,,,,,,,,,,2014-11-19,1610000,http://www.redfin.com/CA/Mountain-View/802-Devoto-St-94041/home/1339739,,,,N,Y,37.379951,-122.062119,
Past Sale,Single Family Residential,920 PLUMTREE Ln,Mountain View,CA,94040,1399000,3,2,Mountain View,1280,6000,1954,2,Garage,,Sold,,,,2014-09-02,13999000,2014-09-11,1535000,http://www.redfin.com/CA/Mountain-View/920-Plumtree-Ln-94040/home/640863,MLSListings Inc. (MLSLI),ML81431831,Intero Real Estate Services,N,Y,37.371936,-122.090173,false
Past Sale,Single Family Residential,766 ARROYO Rd,Los Altos,CA,94024,1900000,3,2.5,Los Altos,2067,15364,1950,2,Garage,,Sold,,,,,1900000,2014-09-27,2411000,http://www.redfin.com/CA/Los-Altos/766-Arroyo-Rd-94024/home/879985,MLSListings Inc. (MLSLI),ML81433929,Coldwell Banker,N,Y,37.381608,-122.093358,false
Past Sale,Single Family Residential,1663 YALE Dr,Mountain View,CA,94040,1795000,4,2.5,Varsity Park,1516,7597,1958,2,Garage,,Sold,,,,,1795000,2014-10-02,1871000,http://www.redfin.com/CA/Mountain-View/1663-Yale-Dr-94040/home/708921,MLSListings Inc. (MLSLI),ML81434912,Intero Real Estate Services,N,Y,37.374988,-122.093155,false
Past Sale,Single Family Residential,702 PALO ALTO Ave,Mountain View,CA,94041,1495000,3,2,Mountain View,1677,7500,1927,2,Garage,,Sold,,,,,1495000,2014-10-09,1560000,http://www.redfin.com/CA/Mountain-View/702-Palo-Alto-Ave-94041/home/616514,MLSListings Inc. (MLSLI),ML81435763,Alain Pinel Realtors,N,Y,37.39015,-122.089934,false
Past Sale,Single Family Residential,127 EASY St,Mountain View,CA,94043,1438000,4,3.5,Apricot Commons,1840,1578,,2,Garage,,Sold,,,,,1438000,2014-12-01,1438000,http://www.redfin.com/CA/Mountain-View/127-Easy-St-94043/home/58848897,MLSListings Inc. (MLSLI),ML81437431,Charles R. Baldwin~ Broker,N,Y,37.393234,-122.06767,false
Past Sale,Single Family Residential,3450 Bruckner Cir,Mountain View,CA,94040,,4,2.5,94040,2582,,1964,,,,,,,,,,2014-11-21,2200000,http://www.redfin.com/CA/Mountain-View/3450-Bruckner-Cir-94040/home/647757,,,,N,Y,37.360075,-122.070333,
Past Sale,Single Family Residential,208 Shumway Ln (Unable to map),Mountain View,CA,94041,,4,2.5,94041,1976,,2014,,,,,,,,,,2014-09-18,1931000,http://www.redfin.com/CA/Mountain-View/208-Shumway-Ln-94041/home/57050451,,,,N,Y,37.3904,-122.0726,
Past Sale,Single Family Residential,3436 CHURIN Dr,Mountain View,CA,94040,1968000,3,2,Mountain View,2215,7931,1971,2,Garage,,Sold,,,,,1968000,2014-10-03,2400000,http://www.redfin.com/CA/Mountain-View/3436-Churin-Dr-94040/home/647674,MLSListings Inc. (MLSLI),ML81434914,Intero Real Estate Services,N,Y,37.359818,-122.07398,false
Past Sale,Single Family Residential,808 SONIA Way,Mountain View,CA,94040,1150000,3,1,Mountain View,1104,5632,1952,2,Garage,,Sold,,,,,1150000,2014-08-17,1105000,http://www.redfin.com/CA/Mountain-View/808-Sonia-Way-94040/home/641652,MLSListings Inc. (MLSLI),ML81428655,Benson Real Estate,N,Y,37.384409,-122.085238,false
Past Sale,Single Family Residential,944 Rincon St,Mountain View,CA,94040,,5,3.5,94040,2250,,2009,,,,,,,,,,2014-09-24,1800000,http://www.redfin.com/CA/Mountain-View/944-Rincon-St-94040/home/23044925,,,,N,Y,37.384215,-122.088384,
Past Sale,Single Family Residential,1552 BEGEN Ave,Mountain View,CA,94040,1398000,4,2,Mountain View,1490,6000,1955,2,Garage,,Sold,,,,,1398000,2014-09-17,1678000,http://www.redfin.com/CA/Mountain-View/1552-Begen-Ave-94040/home/1484042,MLSListings Inc. (MLSLI),ML81432942,Intero Real Estate Services,N,Y,37.37798,-122.085396,false
Past Sale,Single Family Residential,300 MARIPOSA Ave,Mountain View,CA,94041,1550000,3,3,Mountain View,1763,3652,2011,2,Garage,,Sold,,,,,1550000,2014-09-29,1751000,http://www.redfin.com/CA/Mountain-View/300-Mariposa-Ave-94041/home/826391,MLSListings Inc. (MLSLI),ML81434837,Green Valley Realty,N,Y,37.395995,-122.088985,false
Past Sale,Single Family Residential,1846 LIMETREE Ln,Mountain View,CA,94040,1898000,3,2,Blossom Valley,1537,8085,1957,2,Garage,,Sold,,,,,1898000,2014-10-15,2210000,http://www.redfin.com/CA/Mountain-View/1846-Limetree-Ln-94040/home/1500267,MLSListings Inc. (MLSLI),ML81436637,Intero Real Estate Services,N,Y,37.369703,-122.095349,false
Past Sale,Single Family Residential,685 BUSH St,Mountain View,CA,94041,1198000,3,1,Mountain View,1219,5000,1945,2,Garage,,Sold,,,,,1198000,2014-08-14,1415000,http://www.redfin.com/CA/Mountain-View/685-Bush-St-94041/home/617333,MLSListings Inc. (MLSLI),ML81428671,Intero Real Estate Services,N,Y,37.386215,-122.079301,false
Past Sale,Single Family Residential,382 MERCY St,Mountain View,CA,94041,1500000,4,2,Mountain View,1705,5100,1948,1,Garage,,Sold,,,,2014-08-13,1588000,2014-08-21,1600000,http://www.redfin.com/CA/Mountain-View/382-Mercy-St-94041/home/1652717,MLSListings Inc. (MLSLI),ML81429564,Coldwell Banker Los Altos,N,Y,37.388788,-122.076247,false
Past Sale,Single Family Residential,155 Santa Clara Ave,Mountain View,CA,94043,,3,1,94043,1340,,1947,,,,,,,,,,2014-10-16,1100000,http://www.redfin.com/CA/Mountain-View/155-Santa-Clara-Ave-94043/home/621996,,,,N,Y,37.395521,-122.075915,
Past Sale,Single Family Residential,635 Ehrhorn Ave,Mountain View,CA,94041,,3,1,94041,1190,,1948,,,,,,,,,,2014-10-22,1300000,http://www.redfin.com/CA/Mountain-View/635-Ehrhorn-Ave-94041/home/780119,,,,N,Y,37.384963,-122.076917,
Past Sale,Single Family Residential,521 ANZA St,Mountain View,CA,94041,1498950,3,2,Mountain View,1512,5130,1947,1,Garage,,Sold,,,,,1498950,2014-10-21,1448150,http://www.redfin.com/CA/Mountain-View/521-Anza-St-94041/home/1652713,MLSListings Inc. (MLSLI),ML81434181,Pacific Associates,N,Y,37.388104,-122.076784,false
Past Sale,Single Family Residential,1106 Boranda Ave,Mountain View,CA,94040,,3,2.5,94040,1747,,1997,,,,,,,,,,2014-10-23,1731000,http://www.redfin.com/CA/Mountain-View/1106-Boranda-Ave-94040/home/1524222,,,,N,Y,37.381153,-122.082528,
Past Sale,Single Family Residential,221 PINE Way (Unable to map),Mountain View,CA,94041,1498000,3,3.5,station 361,1764,1554,2012,1,Garage,,Sold,,,,,1498000,2014-10-17,1552888,http://www.redfin.com/CA/Mountain-View/221-Pine-Way-94041/home/41397084,MLSListings Inc. (MLSLI),ML81436044,Keller Williams Palo Alto,N,Y,,,false
Past Sale,Single Family Residential,180 JENKINS Ln,Mountain View,CA,94043,1398000,4,2.5,California Station,1679,3200,1997,2,Garage,,Sold,,,,,1398000,2014-11-21,1414500,http://www.redfin.com/CA/Mountain-View/180-Jenkins-Ln-94043/home/1277588,MLSListings Inc. (MLSLI),ML81440174,Intero Real Estate Services,N,Y,37.392973,-122.059169,false
Past Sale,Single Family Residential,382 Foxborough Dr,Mountain View,CA,94041,,3,2,94041,1968,,1976,,,,,,,,,,2012-12-06,1000000,http://www.redfin.com/CA/Mountain-View/382-Foxborough-Dr-94041/home/1321106,,,,N,Y,37.384468,-122.061679,
Past Sale,Single Family Residential,1879 Limetree Ln,Mountain View,CA,94040,,3,2,94040,1620,,1961,,,,,,,,,,2012-07-27,1410000,http://www.redfin.com/CA/Mountain-View/1879-Limetree-Ln-94040/home/1423068,,,,N,Y,37.368607,-122.094854,
Past Sale,Single Family Residential,1437 Meadow Ln,Mountain View,CA,94040,,3,2.5,94040,1973,,1953,,,,,,,,,,2014-07-23,1906000,http://www.redfin.com/CA/Mountain-View/1437-Meadow-Ln-94040/home/1354968,,,,N,Y,37.380117,-122.092493,
Past Sale,Single Family Residential,188 Thompson Sq,Mountain View,CA,94043,,3,2,94043,1830,,1956,,,,,,,,,,2012-08-10,979000,http://www.redfin.com/CA/Mountain-View/188-Thompson-Sq-94043/home/1821770,,,,N,Y,37.405638,-122.099513,
Past Sale,Single Family Residential,2400 Alvin St,Mountain View,CA,94043,,3,2,94043,1116,,1954,,,,,,,,,,2012-07-26,875000,http://www.redfin.com/CA/Mountain-View/2400-Alvin-St-94043/home/1486798,,,,N,Y,37.410166,-122.096533,
Past Sale,Single Family Residential,152 Thompson Ave,Mountain View,CA,94043,,3,2,94043,1280,,1955,,,,,,,,,,2012-07-23,835000,http://www.redfin.com/CA/Mountain-View/152-Thompson-Ave-94043/home/1308765,,,,N,Y,37.405528,-122.100959,
Past Sale,Single Family Residential,2507 Mardell Way,Mountain View,CA,94043,,4,2,94043,1216,,1958,,,,,,,,,,2012-07-11,855000,http://www.redfin.com/CA/Mountain-View/2507-Mardell-Way-94043/home/1760906,,,,N,Y,37.411351,-122.102693,
Past Sale,Single Family Residential,74 Eldora Dr,Mountain View,CA,94041,,3,2,94041,1124,,1953,,,,,,,,,,2012-05-30,900000,http://www.redfin.com/CA/Mountain-View/74-Eldora-Dr-94041/home/621003,,,,N,Y,37.38599,-122.071286,
Past Sale,Single Family Residential,809 Sonia Way,Mountain View,CA,94040,,3,2,94040,1869,,1952,,,,,,,,,,2012-05-25,1365000,http://www.redfin.com/CA/Mountain-View/809-Sonia-Way-94040/home/1398018,,,,N,Y,37.384081,-122.085439,
Past Sale,Single Family Residential,134 Azalea Dr,Mountain View,CA,94041,,2,2.5,94041,1839,,2008,,,,,,,,,,2012-05-18,1010000,http://www.redfin.com/CA/Mountain-View/134-Azalea-Dr-94041/home/17291616,,,,N,Y,37.389275,-122.072342,
Past Sale,Single Family Residential,724 Leona Ln,Mountain View,CA,94040,,4,2,94040,1490,,1955,,,,,,,,,,2012-05-25,1275000,http://www.redfin.com/CA/Mountain-View/724-Leona-Ln-94040/home/1611956,,,,N,Y,37.374761,-122.083446,
Past Sale,Single Family Residential,305 Chetwood Dr,Mountain View,CA,94043,,4,2.5,94043,1679,,1997,,,,,,,,,,2012-05-31,935000,http://www.redfin.com/CA/Mountain-View/305-Chetwood-Dr-94043/home/626839,,,,N,Y,37.389566,-122.062058,
Past Sale,Single Family Residential,915 Boranda Ave,Mountain View,CA,94040,,3,2.5,94040,2014,,1989,,,,,,,,,,2012-07-19,1125000,http://www.redfin.com/CA/Mountain-View/915-Boranda-Ave-94040/home/1484032,,,,N,Y,37.383527,-122.081612,
Past Sale,Single Family Residential,775 LEONA Ln,Mountain View,CA,94040,858888,3,2,Mountain View,1178,5762,1955,2,Garage,,Sold,,,,,858888,2012-05-24,950000,http://www.redfin.com/CA/Mountain-View/775-Leona-Ln-94040/home/880106,MLSListings Inc. (MLSLI),ML81216142,Realcom Associates,N,Y,37.374171,-122.084976,false
Past Sale,Single Family Residential,152 Martens Ave,Mountain View,CA,94040,,2,1,94040,986,,1946,,,,,,,,,,2012-06-15,1050000,http://www.redfin.com/CA/Mountain-View/152-Martens-Ave-94040/home/1281188,,,,N,Y,37.376122,-122.075509,
Past Sale,Single Family Residential,528 Vincent Dr,Mountain View,CA,94041,,3,2,94041,1586,,1947,,,,,,,,,,2012-08-27,960000,http://www.redfin.com/CA/Mountain-View/528-Vincent-Dr-94041/home/1095381,,,,N,Y,37.387784,-122.076634,
Past Sale,Single Family Residential,1114 SUSSEX Sq,Mountain View,CA,94040,1100000,3,2,Mountain View,1712,5300,1978,2,Garage,,Sold,,,,,1100000,2012-05-23,1175000,http://www.redfin.com/CA/Mountain-View/1114-Sussex-Sq-94040/home/1073729,MLSListings Inc. (MLSLI),ML81218267,Alain Pinel Realtors,N,Y,37.37769,-122.073274,false
Past Sale,Single Family Residential,321 Sleeper Ave,Mountain View,CA,94040,,4,2,94040,1558,,1957,,,,,,,,,,2012-06-20,1214000,http://www.redfin.com/CA/Mountain-View/321-Sleeper-Ave-94040/home/780813,,,,N,Y,37.371365,-122.074341,
Past Sale,Single Family Residential,629 CHARMAIN Cir,Mountain View,CA,94041,1100000,3,2.5,Mountain View,2048,4557,1986,2,Garage,,Sold,,,,,1100000,2012-05-24,1100000,http://www.redfin.com/CA/Mountain-View/629-Charmain-Cir-94041/home/624798,MLSListings Inc. (MLSLI),ML81219595,Alain Pinel Realtors,N,Y,37.379901,-122.06058,false
Past Sale,Single Family Residential,52 Paul Ave,Mountain View,CA,94041,,3,2,94041,1124,,1953,,,,,,,,,,2012-07-11,900000,http://www.redfin.com/CA/Mountain-View/52-Paul-Ave-94041/home/1494315,,,,N,Y,37.384864,-122.070451,
Past Sale,Single Family Residential,56 Paul Ave,Mountain View,CA,94041,,3,2,94041,1559,,1953,,,,,,,,,,2012-09-12,775000,http://www.redfin.com/CA/Mountain-View/56-Paul-Ave-94041/home/619481,,,,N,Y,37.384956,-122.070677,
Past Sale,Single Family Residential,282 HANS Ave,Mountain View,CA,94040,948000,3,2,Mountain View,1248,5060,1954,2,Garage,,Sold,,,,,948000,2012-06-07,1066000,http://www.redfin.com/CA/Mountain-View/282-Hans-Ave-94040/home/1525525,MLSListings Inc. (MLSLI),ML81220400,Alain Pinel Realtors,N,Y,37.379373,-122.078286,false
Past Sale,Single Family Residential,818 BOURBON Ct,Mountain View,CA,94041,699950,3,2,Mountain View,1592,4773,1978,2,Garage,,Sold,,,,,699950,2012-06-07,750000,http://www.redfin.com/CA/Mountain-View/818-Bourbon-Ct-94041/home/624679,MLSListings Inc. (MLSLI),ML81220396,Intero Real Estate Services,N,Y,37.378467,-122.065828,false
Past Sale,Single Family Residential,205 Houghton St,Mountain View,CA,94041,,3,2.5,94041,1432,,1995,,,,,,,,,,2012-06-27,1080500,http://www.redfin.com/CA/Mountain-View/205-Houghton-St-94041/home/1280419,,,,N,Y,37.391779,-122.074181,
Past Sale,Single Family Residential,65 Dalma Dr,Mountain View,CA,94041,,3,2,94041,1578,,1957,,,,,,,,,,2012-07-31,952000,http://www.redfin.com/CA/Mountain-View/65-Dalma-Dr-94041/home/619633,,,,N,Y,37.384124,-122.071467,
Past Sale,Single Family Residential,731 Ormonde Dr,Mountain View,CA,94043,,4,2,94043,1576,,1965,,,,,,,,,,2012-07-13,715000,http://www.redfin.com/CA/Mountain-View/731-Ormonde-Dr-94043/home/813386,,,,N,Y,37.404248,-122.080722,
Past Sale,Single Family Residential,179 Hamwood Ter,Mountain View,CA,94043,,3,3.5,94043,1612,,2007,,,,,,,,,,2012-06-01,840000,http://www.redfin.com/CA/Mountain-View/179-Hamwood-Ter-94043/home/17292065,,,,N,Y,37.405217,-122.059593,
Past Sale,Single Family Residential,757 San Carrizo Way,Mountain View,CA,94043,,4,3,94043,1701,,1962,,,,,,,,,,2012-05-30,925000,http://www.redfin.com/CA/Mountain-View/757-San-Carrizo-Way-94043/home/1354326,,,,N,Y,37.405343,-122.071345,
Past Sale,Single Family Residential,330 Moffett Blvd,Mountain View,CA,94043,,4,2,94043,1176,,1960,,,,,,,,,,2013-09-20,635000,http://www.redfin.com/CA/Mountain-View/330-Moffett-Blvd-94043/home/1392174,,,,N,Y,37.398388,-122.076157,
Past Sale,Single Family Residential,450 LEVIN Ave,Mountain View,CA,94040,1499000,4,2.5,Mountain View,2264,7950,1966,2,Garage,,Sold,,,,,1499000,2012-06-07,1611000,http://www.redfin.com/CA/Mountain-View/450-Levin-Ave-94040/home/1462514,MLSListings Inc. (MLSLI),ML81220116,Intero Real Estate Services,N,Y,37.366032,-122.074252,false
Past Sale,Single Family Residential,2710 PAVO Ln,Mountain View,CA,94040,2299000,4,3.5,Mountain View,2892,8265,2012,2,Garage,,Sold,,,,,2299000,2012-07-10,2175000,http://www.redfin.com/CA/Mountain-View/2710-Pavo-Ln-94040/home/40418822,MLSListings Inc. (MLSLI),ML81221018,Summerhill Brokerage~ Inc.,N,Y,37.36469,-122.077458,false
Past Sale,Single Family Residential,1164 Karen Way,Mountain View,CA,94040,,4,2,94040,1324,,1951,,,,,,,,,,2012-06-05,1113000,http://www.redfin.com/CA/Mountain-View/1164-Karen-Way-94040/home/607696,,,,N,Y,37.390093,-122.104436,
Past Sale,Single Family Residential,106 Beacon St,Mountain View,CA,94040,,3,2.5,94040,1720,,1995,,,,,,,,,,2012-07-27,1168000,http://www.redfin.com/CA/Mountain-View/106-Beacon-St-94040/home/2121387,,,,N,Y,37.405727,-122.10646,
Past Sale,Single Family Residential,2139 Aitken Ave,Mountain View,CA,94040,,3,2,94040,1433,,1952,,,,,,,,,,2012-07-31,1085000,http://www.redfin.com/CA/Mountain-View/2139-Aitken-Ave-94040/home/1354845,,,,N,Y,37.389711,-122.104929,
Past Sale,Single Family Residential,222 Sherland Ave,Mountain View,CA,94043,,3,2.5,94043,1818,,1990,,,,,,,,,,2012-06-06,950000,http://www.redfin.com/CA/Mountain-View/222-Sherland-Ave-94043/home/1378345,,,,N,Y,37.400092,-122.059105,
Past Sale,Single Family Residential,317 Monroe Dr,Palo Alto,CA,94306,,3,1,94306,1343,,1948,,,,,,,,,,2012-08-06,1350000,http://www.redfin.com/CA/Palo-Alto/317-Monroe-Dr-94306/home/12171875,,,,N,Y,37.40977,-122.116074,
Past Sale,Single Family Residential,1755 Fordham Way,Mountain View,CA,94040,,3,2,94040,1527,,1955,,,,,,,,,,2013-07-19,1600000,http://www.redfin.com/CA/Mountain-View/1755-Fordham-Way-94040/home/640816,,,,N,Y,37.371895,-122.091213,
Past Sale,Single Family Residential,2510 Alvin St,Mountain View,CA,94043,,3,2,94043,1125,,1954,,,,,,,,,,2012-12-20,270000,http://www.redfin.com/CA/Mountain-View/2510-Alvin-St-94043/home/1704447,,,,N,Y,37.41246,-122.100667,
Past Sale,Single Family Residential,2356 Laura Ln,Mountain View,CA,94043,,3,2,94043,1104,,1955,,,,,,,,,,2013-08-16,1050000,http://www.redfin.com/CA/Mountain-View/2356-Laura-Ln-94043/home/1760987,,,,N,Y,37.407201,-122.097422,
Past Sale,Single Family Residential,830 Tulane Dr,Mountain View,CA,94040,,3,1.5,94040,1178,,1952,,,,,,,,,,2012-08-31,1160000,http://www.redfin.com/CA/Mountain-View/830-Tulane-Dr-94040/home/685109,,,,N,Y,37.376624,-122.088834,
Past Sale,Single Family Residential,184 Farley St,Mountain View,CA,94043,,3,3.5,94043,2328,,1999,,,,,,,,,,2012-08-17,1000000,http://www.redfin.com/CA/Mountain-View/184-Farley-St-94043/home/1826902,,,,N,Y,37.40171,-122.090527,
Past Sale,Single Family Residential,317 Serra San Bruno,Mountain View,CA,94043,,3,2.5,94043,1715,,1998,,,,,,,,,,2013-09-10,1000000,http://www.redfin.com/CA/Mountain-View/317-Serra-San-Bruno-94043/home/1222992,,,,N,Y,37.407225,-122.09472,
Past Sale,Single Family Residential,1652 Gretel Ln,Mountain View,CA,94040,,3,2,94040,1248,,1955,,,,,,,,,,2012-09-28,212000,http://www.redfin.com/CA/Mountain-View/1652-Gretel-Ln-94040/home/1558955,,,,N,Y,37.374171,-122.078898,
Past Sale,Single Family Residential,530 Devonshire Ct,Mountain View,CA,94043,,3,2.5,94043,1697,,1998,,,,,,,,,,2013-07-30,125000,http://www.redfin.com/CA/Mountain-View/530-Devonshire-Ct-94043/home/643083,,,,N,Y,37.40397,-122.060659,
Past Sale,Single Family Residential,169 College St,Mountain View,CA,94040,,3,2,94040,1104,,1998,,,,,,,,,,2013-08-30,850000,http://www.redfin.com/CA/Mountain-View/169-College-St-94040/home/12171571,,,,N,Y,37.40234,-122.099886,
Past Sale,Single Family Residential,212 MARGUERITE LN (Unable to map),MOUNTAIN VIEW,CA,94041,,3,2.5,94041,1526,,2014,,,,,,,,,,2014-12-02,1671500,http://www.redfin.com/CA/MOUNTAIN-VIEW/212-MARGUERITE-LN-94041/home/62324255,,,,N,Y,37.3886,-122.0733,
Past Sale,Single Family Residential,450 Anza St,Mountain View,CA,94041,,3,1,94041,1430,,1939,,,,,,,,,,2012-06-20,1600000,http://www.redfin.com/CA/Mountain-View/450-Anza-St-94041/home/1487316,,,,N,Y,37.389033,-122.076791,
